index,CityST,AirportDist,pop,lon,lat,BaseDist,count,per_capita,sqrt_airport,sqrt_base,sqrt_per_capita,cubert_per_capita,log_airport,log_base,log_per_capita
0,"Surfside Beach, SC",9.18746679641,3898.89473684,-78.9732753263,33.6063700947,7.5122321515,38,0.0097463518676,3.03108343607,2.74084515278,0.0987236135258,0.213606285933,2.21784025054,2.01653264552,-4.63086223142
1,"Shallotte, NC",12.2659882867,3675.0,-78.3270253156,33.9266778531,31.6888309498,32,0.0087074829932,3.50228329618,5.62928334247,0.0933138949632,0.205729961572,2.50683025226,3.45596428283,-4.74357250885
2,"Myrtle Beach, SC",3.95932372276,26351.03125,-78.8910137799,33.6952582634,5.8200152088,224,0.0085006160812,1.98980494591,2.41247076849,0.0921987856818,0.204087685626,1.3760732336,1.76130287494,-4.76761663797
3,"Mount Vernon, KY",9.59575868918,2597.63636364,-84.4995866818,38.0397508364,45.9126589434,22,0.0084692377686,3.09770216276,6.7758880557,0.0920284617311,0.20383625981,2.26132119764,3.82674087302,-4.77131476627
4,"North Myrtle Beach, SC",4.08587777608,13528.7678571,-78.6788575241,33.8227485571,29.3892712044,112,0.00827865487698,2.02135543042,5.42118725045,0.0909871137963,0.202295672591,1.40753658309,3.38062968272,-4.79407477825
5,"Sunset Beach, NC",1.82568576386,3572.0,-78.4502744828,33.8905844586,43.1279730532,29,0.00811870100784,1.35117939736,6.56718912878,0.0901038345901,0.200984322662,0.601955677473,3.76417181334,-4.81358511201
6,"Nags Head, NC",8.09612760569,2748.0,-75.6188869632,35.9465791789,34.0810135008,19,0.00691411935953,2.84536950249,5.837894612,0.0831511837531,0.190507593422,2.09138587399,3.52874044039,-4.97418967418
7,"Lawrenceburg, IN",16.7287854292,4847.34375,-84.8529215406,39.0924261875,50.2390062548,32,0.00660155368597,4.09008379244,7.08794795796,0.0812499457598,0.187592463418,2.81713091399,3.916791742,-5.02045025069
8,"Live Oak, CA",40.0378130851,7569.10204082,-121.995726714,37.0028345247,45.4347059919,49,0.0064736873325,6.32754400104,6.74052713012,0.0804592277647,0.186373390794,3.6898243347,3.81627626217,-5.04000942052
9,"Cumming, GA",28.4170922818,5323.23529412,-84.1399976529,34.2081428176,47.0930503525,34,0.00638709320957,5.33076845134,6.86243763924,0.0799192918485,0.185538660987,3.34699080504,3.85212543923,-5.05347601087
10,"Johnson, AR",12.3619429128,3354.0,-94.2098667223,36.111508,80.0427028474,21,0.00626118067979,3.51595547651,8.94665875327,0.0791276227356,0.184311349437,2.51462263327,4.38256027785,-5.07338650466
11,"Apache Junction, AZ",13.44957584,33533.4019139,-111.571716888,33.4279795742,41.3678813864,209,0.0062325916272,3.66736633567,6.43178679578,0.0789467645138,0.184030394585,2.59894756949,3.72250476781,-5.07796304116
12,"Estacada, OR",45.211310166,2456.66666667,-122.258694147,45.1951171667,55.4117689057,15,0.00610583446404,6.72393561584,7.44390817419,0.0781398391606,0.182774249222,3.81134728045,4.01479200631,-5.09851049541
13,"Louisburg, NC",44.981391902,3302.0,-78.28991445,36.10094945,89.7617212313,20,0.00605693519079,6.70681682335,9.47426626348,0.0778263142568,0.182285018045,3.80624889096,4.49715861752,-5.10655135093
14,"Fenton, MO",23.8276162699,4064.25,-90.4401794,38.5132838,26.0947316289,24,0.00590514855139,4.88135393819,5.10830026808,0.0768449643854,0.18074943251,3.17084525547,3.26173344065,-5.13193067277
15,"Sonora, CA",44.5866638613,4636.33333333,-120.3821381,37.9840911,55.7398966368,27,0.0058235674743,6.67732460356,7.46591565964,0.0763123022474,0.179913203774,3.79743479775,4.02069616767,-5.14584223693
16,"Port Richey, FL",33.048547135,2707.8,-82.7195451,28.2716755,52.1956985174,15,0.00553955240417,5.74878657936,7.2246590589,0.0744281694264,0.17693953912,3.49797760572,3.95500008761,-5.19584157496
17,"Lisbon, OH",22.4427381954,2803.4,-80.76263086,40.7731237067,52.9572827954,15,0.00535064564457,4.73737672087,7.27717546823,0.0731481075939,0.174904934975,3.11096709618,3.96948560358,-5.23053804413
18,"Orchard Park, NY",15.4935422442,3254.47058824,-78.7442216621,42.7619115,40.9837839261,17,0.00522358384846,3.93618371576,6.40185784957,0.0722743650852,0.17350933959,2.7404233077,3.71317647447,-5.25457155165
19,"Myrtle Point, OR",86.1714341451,2477.25,-124.006110192,42.8154971583,191.057782407,12,0.00484408113836,9.28285700337,13.8223652971,0.0695994334629,0.16920134189,4.45633873232,5.25257590799,-5.32999770315
20,"Thermopolis, WY",73.2866925677,3135.4,-107.65433588,43.2334984667,253.101024658,15,0.00478407858646,8.56076471863,15.9091490865,0.0691670339574,0.168499817573,4.2943790449,5.53378871597,-5.34246183553
21,"Black River Falls, WI",45.9831419979,3602.94117647,-90.8301090118,44.3219894588,34.3914979648,17,0.00471836734694,6.78108708084,5.86442648217,0.0686903730296,0.167724787342,3.82827485101,3.53780938165,-5.35629244029
22,"Willits, CA",66.1933493624,4934.2173913,-123.35003743,39.388024313,173.008930204,23,0.00466132684801,8.13592953278,13.153285909,0.0682739104491,0.167046168501,4.19257999509,5.15334321284,-5.36845514004
23,"Holts Summit, MO",6.19646377988,3247.0,-92.1224055,38.640315,96.7103276858,15,0.00461964890668,2.48926972823,9.83414092261,0.067967999137,0.166546811821,1.82397877125,4.57172019806,-5.377436571
24,"Gig Harbor, WA",6.49397326336,6538.7,-122.5878659,47.3259697,22.8992597657,30,0.00458806796458,2.5483275424,4.7853171019,0.067735278582,0.166166426748,1.87087455654,3.1311045854,-5.38429626627
25,"Wolf Point, MT",4.88789894915,2628.0,-105.56684965,48.0943236833,320.716436224,12,0.00456621004566,2.21085932369,17.9085576254,0.0675737378399,0.165902129923,1.5867625484,5.77055735647,-5.38907172982
26,"Coleman, TX",52.5625452721,5372.33333333,-99.485887675,31.8254238083,73.8971047612,24,0.00446733263014,7.25000312221,8.59634252233,0.0668381076194,0.16469589078,3.96200379903,4.3026736494,-5.41096377551
27,"Ocean City, MD",37.0811302816,6996.41935484,-75.0851853,38.335242,95.2186100674,31,0.00443083789404,6.08942774664,9.75800236049,0.0665645393136,0.164246183581,3.61310822248,4.55617540659,-5.41916657194
28,"Emerald Isle, NC",25.600839976,3644.5625,-76.9507762,34.6779399,25.5942925137,16,0.00439010169259,5.05972726301,5.05908020432,0.0662578424988,0.163741284684,3.24262516251,3.24236937795,-5.42840288756
29,"Frostproof, FL",19.4682579226,2970.07692308,-81.4691102538,27.7559279231,25.9467964419,13,0.00437699101292,4.41228488684,5.09379980387,0.0661588317077,0.163578122167,2.96878534042,3.25604815081,-5.43139377403
30,"Melbourne Beach, FL",9.16779233905,3218.0,-80.5603303,28.0683496,20.2706641419,14,0.00435052827843,3.02783624707,4.50229543032,0.0659585345383,0.163247798019,2.21569650909,3.0091747247,-5.43745799794
31,"Goldendale, WA",21.327820694,3477.6,-120.8201197,45.79395718,89.5756739943,15,0.00431331953071,4.61820535425,9.46444261403,0.0656758671866,0.162781061908,3.06001235633,4.49508378752,-5.44604747857
32,"Jackson, OH",40.1473609151,6355.96296296,-82.6315174777,39.0352294333,88.8425008446,27,0.00424797944188,6.33619451367,9.42562999723,0.0651765252363,0.161954916097,3.6925567076,4.48686514861,-5.46131183454
33,"Johnstown, OH",29.6066860002,4256.66666667,-82.6582485505,40.186726075,31.398258359,18,0.00422866092404,5.44120262444,5.60341488371,0.0650281548565,0.161709035765,3.38800021421,3.4467524251,-5.46586990246
34,"Winchester, TN",19.5549192086,8050.96875,-86.108910975,35.1702517,24.9864008259,32,0.00397467696046,4.42209443687,4.9986398976,0.0630450391423,0.158404413973,2.9732268767,3.2183317099,-5.52781180199
35,"Grangeville, ID",84.9299962703,3297.69230769,-116.195522654,45.6704433769,217.011147463,13,0.00394215068813,9.21574719002,14.7312982273,0.0627865486241,0.157971135679,4.44182734388,5.37994872302,-5.53602884467
36,"Wasilla, AK",18.533498772,7221.92857143,-149.4380985,61.5828234,37.5803620923,28,0.00387708071647,4.30505502543,6.13028238275,0.0622662084639,0.157097140804,2.9195798391,3.62648162918,-5.5526728012
37,"Blackshear, GA",23.2818749266,3379.61538462,-82.1490170385,31.4197418615,54.5567938839,13,0.00384659155571,4.82512952433,7.38625709571,0.0620208961214,0.156684255358,3.1476751577,3.99924224868,-5.56056783301
38,"Doylestown, PA",12.3420213015,8332.1875,-75.1179753965,40.3014300219,11.6141948591,32,0.00384052807261,3.51312130469,3.40796051314,0.0619719942604,0.156601883562,2.51300980583,2.45222804476,-5.56214540293
39,"Whitehall, NY",32.2740262492,2624.6,-73.5465511124,43.62775955,64.8160740957,10,0.00381010439686,5.68102334524,8.05084306739,0.0617260431006,0.156187266848,3.47426276584,4.17155362963,-5.57009868947
40,"Stanwood, WA",25.5731133258,5307.8,-122.34953354,48.2452535,21.7791001817,20,0.00376803948905,5.05698658549,4.66680835065,0.0613843586678,0.15561035083,3.24154153886,3.08095080268,-5.58120044221
41,"Tipton, IA",32.4651162774,3196.16666667,-91.1584904,41.6739117,54.51340772,12,0.00375449757522,5.69781679921,7.38331955966,0.0612739551132,0.155423711647,3.48016616758,3.99844668462,-5.58480080426
42,"Lakehurst, NJ",6.39918703079,2665.2,-74.39517152,40.06613774,10.3963234894,10,0.003752063635,2.52966144588,3.22433303016,0.0612540907613,0.155390118711,1.85617095586,2.34145223301,-5.58544928769
43,"Oregon, OH",26.5682794425,19699.2328767,-83.5101466616,41.6763489685,26.3735634546,73,0.00370572805839,5.15444268981,5.13551978427,0.0608746914439,0.154747811319,3.27971800203,3.27236212414,-5.59787553255
44,"Aberdeen, MS",27.3541655721,5690.14285714,-88.4747009,33.8884929,29.3235500836,21,0.00369059275439,5.2301209902,5.41512235167,0.0607502490068,0.154536845028,3.30886882338,3.3783909503,-5.60196819579
45,"Clinton, NJ",20.2586494228,2710.3,-74.92955708,40.61487956,45.8709499119,10,0.00368962845441,4.50096094438,6.77280960251,0.0607423118955,0.154523384421,3.00858183435,3.82583201718,-5.60222951586
46,"Colville, WA",62.0041380687,4612.64705882,-117.853414141,48.5664204412,105.606645063,17,0.00368551935216,7.87427063725,10.2765093813,0.0607084784208,0.154465999398,4.12720112586,4.65972129603,-5.60334382646
47,"Ely, MN",27.7568208997,3803.71428571,-91.5349275469,47.9864826214,136.55218858,14,0.00368061293473,5.2684742478,11.6855546971,0.0606680553069,0.154397423696,3.32348160818,4.91670687547,-5.60467598232
48,"Cape May, NJ",6.10558741737,3804.78571429,-74.9060053,38.9351125,54.7242825016,14,0.00367957647324,2.47094868773,7.39758626186,0.060659512636,0.154382929551,1.809204322,4.00230753234,-5.60495762222
49,"Jefferson, OH",14.5079995375,3294.33333333,-80.74947,41.7167229,51.4038725049,12,0.00364261863807,3.80893679883,7.16964939902,0.060354110366,0.153864312907,2.67470018954,3.93971351019,-5.61505244992
50,"Mount Shasta, CA",89.0648904943,3310.33333333,-122.3105666,41.3098746,105.855572392,12,0.00362501258685,9.43741969472,10.2886137255,0.060208077422,0.153616019081,4.48936521074,4.66207564043,-5.61989751845
51,"Katy, TX",15.0824179511,13068.4255319,-95.8250055532,29.7848224979,66.5697683472,47,0.00359645466741,3.88360888235,8.15902986557,0.0599704482842,0.153211558439,2.71352969131,4.19825054577,-5.62780673338
52,"Flemingsburg, KY",55.3604607523,2781.3,-83.71577788,38.37654204,91.0487814224,10,0.00359544098084,7.44046105777,9.54194851287,0.0599619961379,0.153197162494,4.01386563411,4.51139542247,-5.62808863029
53,"Lincoln City, OR",42.1284800397,7841.96428571,-124.0178914,44.9581644,128.788360348,28,0.00357053398611,6.49064557958,11.3484959509,0.0597539453602,0.152842590699,3.74072399748,4.85817043962,-5.63504011843
54,"Dawsonville, GA",30.3429125642,2536.0,-84.1190804,34.4212052,66.7754028364,9,0.00354889589905,5.50844012078,8.17162179964,0.0595726103092,0.152533213571,3.41256296681,4.20133479172,-5.64111873822
55,"Lake Placid, NY",2.19927867548,2573.0,-73.9788217222,44.2969603444,67.3819466208,9,0.00349786241741,1.48299651904,8.20865071865,0.0591427292016,0.151798532967,0.78812943182,4.21037712775,-5.65560323495
56,"Alturas, CA",75.8781276031,2859.5,-120.42841158,41.50480088,123.854996751,10,0.00349711488022,8.71080522128,11.1290159831,0.0591364090914,0.151787718445,4.329128469,4.81911150031,-5.65581697036
57,"Davenport, FL",18.4747422179,2888.0,-81.6017417,28.1614046,69.1738013575,10,0.00346260387812,4.29822547313,8.31707889571,0.0588438941447,0.151286765235,2.91640451371,4.23662219784,-5.66573440702
58,"Newburgh, IN",15.1601176237,3284.54545455,-87.4006397091,37.9360034545,78.5442251169,11,0.00334901743703,3.89359957157,8.86251798965,0.0578706958402,0.149614081103,2.718668139,4.36366184344,-5.69908827854
59,"Carolina Beach, NC",26.1930158319,5419.5,-77.8945652389,34.0352975056,8.50457189404,18,0.00332133960697,5.11791127628,2.91625991538,0.0576310646004,0.149200780431,3.26549280393,2.14060388878,-5.70738708136
60,"Buckley, WA",13.0814911367,3929.53846154,-121.940682969,47.0259328769,33.0906253751,13,0.00330827656409,3.61683440825,5.75244516489,0.0575176195969,0.149004917996,2.57119834081,3.49925002097,-5.71132790069
61,"Corydon, IN",33.9451468909,3040.6,-86.11922117,38.22217853,33.3173705939,10,0.0032888245741,5.8262463809,5.77212011257,0.0573482743777,0.148712304254,3.52474589506,3.50607890044,-5.71722505035
62,"Indialantic, FL",7.95159728136,2744.88888889,-80.5656079,28.0894599,17.8672152697,9,0.00327882124352,2.81985767041,4.22696288956,0.0572609923379,0.148561376051,2.07337282438,2.88296748433,-5.72027129815
63,"Whitefish, MT",12.5774728245,5620.72222222,-114.3346265,48.4107966,244.683948307,18,0.00320243543238,3.54647329392,15.6423766835,0.0565900647851,0.147398634672,2.53190734274,5.49996737086,-5.74384368603
64,"North Bend, WA",32.269108232,5029.0625,-121.7862491,47.4938343,64.0138010216,16,0.00318150748773,5.68059048269,8.00086251735,0.0564048534058,0.147076848888,3.4741103711,4.15909870108,-5.75040014177
65,"Gulf Breeze, FL",13.1126820205,5714.0,-87.157993,30.3518970222,14.0648455901,18,0.00315015750788,3.6211437448,3.75031273231,0.0561262639757,0.146592164131,2.57357985508,2.64367846357,-5.76030282489
66,"Leesburg, GA",21.9780518234,2866.77777778,-84.1707423,31.7321156,22.8734932498,9,0.00313941320104,4.6880754925,4.78262409664,0.0560304667216,0.146425312659,3.09004431099,3.12997874013,-5.76371937518
67,"Prineville, OR",5.67003946143,7686.58333333,-120.801820871,44.1620854167,17.1922312787,24,0.00312232352909,2.38118446607,4.14635156236,0.055877755226,0.146159136064,1.7351960774,2.84445761194,-5.76917783346
68,"Attica, NY",20.6898009591,2575.0,-78.2802946,42.8642267,60.1854435384,8,0.0031067961165,4.54860428693,7.75792778636,0.0557386411433,0.145916448669,3.02964087156,4.09743052139,-5.77416327142
69,"Moab, UT",27.0859140604,4831.93333333,-109.58361989,38.56685122,58.0734588307,15,0.00310434746616,5.204412941,7.62059438828,0.0557166713486,0.145878103456,3.29901381639,4.06170874074,-5.77495174151
70,"Taos, NM",85.7289699237,5476.94117647,-105.5730665,36.4072485,175.018794165,17,0.00310392232676,9.25899400171,13.2294668889,0.0557128560277,0.145871443832,4.45119080726,5.16489336339,-5.77508870057
71,"Summersville, WV",59.8514287032,3546.72727273,-80.8601683636,38.2791349,65.2962343718,11,0.00310145076127,7.73637051228,8.0806085397,0.0556906703252,0.145832715784,4.09186530312,4.17893436803,-5.77588528946
72,"Litchfield Park, AZ",5.17323347807,4920.66666667,-112.357477694,33.4943508867,5.61551280853,15,0.00304836742989,2.27447433005,2.3697073255,0.0552120225122,0.144995916332,1.64349792398,1.72553291234,-5.79314910056
73,"Springville, NY",38.0466072605,4285.84615385,-78.6496843846,42.4616009,80.2765789608,13,0.00303324000287,6.16819319254,8.9597198037,0.0550748581739,0.144755672608,3.63881191504,4.38547790918,-5.79812392288
74,"Grandview Heights, OH",8.25382389184,6611.85,-83.022976455,40.01531657,12.1435356433,20,0.0030248720101,2.87294690028,3.48475761615,0.0549988364432,0.144622434438,2.110676595,2.49679698238,-5.8008864991
75,"Sandpoint, ID",59.2594481761,6302.68421053,-116.552955237,48.2726865421,103.25859221,19,0.00301458860469,7.69801585969,10.1616235027,0.0549052693709,0.144458361421,4.08192523019,4.63723644591,-5.80429190764
76,"Wildwood Crest, NJ",7.4685871522,3341.0,-74.8335015,38.9748351,57.5557050623,10,0.00299311583358,2.73287159453,7.58654763791,0.054709376103,0.144114553805,2.010705845,4.05275326253,-5.81144034936
77,"Sequim, WA",22.4867273267,6027.72222222,-123.1096706,48.0849312,28.6442678979,18,0.00298620263781,4.74201722126,5.35203399633,0.0546461584909,0.14400351454,3.11292523856,3.35495334977,-5.81375271954
78,"Naples, FL",2.27589204132,19804.7457627,-81.7948103,26.1420358,157.97563942,59,0.00297908393811,1.50860599274,12.5688360408,0.0545809851332,0.143888995247,0.822372081624,5.06244084025,-5.81613942904
79,"Chatsworth, GA",0.181346666757,4043.0,-84.8258174935,34.722324125,20.5602264573,12,0.00296809300025,0.425848173363,4.53433859094,0.0544802074174,0.143711824019,-1.70734479359,3.02335845499,-5.81983561985
80,"Wickenburg, AZ",6.35158887127,5744.52941176,-112.708823776,33.9460149118,57.7125742362,17,0.00295933727229,2.52023587612,7.59687924323,0.0543997911052,0.14357037057,1.84870499755,4.05547507414,-5.82278993021
81,"Claxton, GA",43.798954678,2746.0,-81.898814025,32.1613918875,40.9493778539,8,0.00291332847779,6.61807786884,6.39917009103,0.053975258015,0.142822451952,3.7796099513,3.71233661736,-5.83845904465
82,"Lewisburg, WV",12.295378744,3790.18181818,-80.4490053818,37.9032160545,93.5150373617,11,0.00290223544085,3.50647668522,9.67031733511,0.0538723996203,0.142640947086,2.50922347991,4.53812225076,-5.84227399726
83,"Parker, AZ",44.1232275641,3102.0,-114.294426633,34.1565592667,112.131732056,9,0.00290135396518,6.64253171344,10.5892271699,0.0538642178555,0.142626504511,3.78698634593,4.71967435921,-5.8425777664
84,"Yelm, WA",15.448409783,5187.13333333,-122.606575113,46.94208472,15.2669449795,15,0.00289177066331,3.93044651191,3.90729381791,0.0537751863159,0.14246929739,2.73750607138,2.72569003238,-5.84588627821
85,"Lewes, DE",1.89040474819,2770.125,-75.1484266625,38.7812786,49.8343836413,8,0.00288795631966,1.3749199061,7.0593472532,0.0537397089652,0.142406629215,0.636790958626,3.90870518035,-5.84720618284
86,"Mukwonago, WI",8.36394620407,7009.0,-88.330580085,42.86511091,36.474710943,20,0.00285347410472,2.89204879006,6.0394296869,0.0534179193223,0.141837579696,2.1239303497,3.59661916958,-5.85921804295
87,"Cocoa Beach, FL",6.30020287869,11647.1515152,-80.645222455,28.2977138182,5.90907120799,33,0.00283331078479,2.51002049368,2.43085812173,0.0532288529352,0.14150270377,1.84058183585,1.77648866306,-5.86630936249
88,"Tinley Park, IL",16.5527045996,49428.4071429,-87.7844944,41.5733669,37.9664338049,140,0.00283237935617,4.06850151771,6.16169082354,0.0532201029328,0.141487196104,2.80654950839,3.63670244844,-5.86663815867
89,"Port Orchard, WA",3.52023111382,9181.57692308,-122.6384056,47.5315625,3.2647311499,26,0.00283175757474,1.87622789496,1.80685670431,0.0532142610091,0.141476841965,1.25852664479,1.18317741628,-5.86685770895
90,"Covington, KY",2.32495936707,42779.3966942,-84.5122345198,39.1004432116,79.3944633697,121,0.0028284643859,1.52478174408,8.9103570843,0.0531833092793,0.141421977254,0.843702562358,4.37442863496,-5.86802133442
91,"Morrisville, PA",2.66767417973,8883.4,-74.99501722,40.208434924,27.1911464932,25,0.00281423779184,1.63330161934,5.21451306386,0.0530493901175,0.141184470786,0.981206999055,3.30289142374,-5.87306382072
92,"Oakridge, OR",93.7722925489,3198.66666667,-122.401095411,43.4156704556,120.777790466,9,0.00281367236348,9.68360947937,10.9898949252,0.0530440605863,0.141175014697,4.54086942377,4.79395241484,-5.87326475796
93,"Bastrop, TX",35.3535302117,6056.29411765,-97.3152701,30.1104947,9.31815415851,17,0.00280699709587,5.94588346772,3.05256517678,0.0529811013086,0.141063283229,3.5653982519,2.23196455742,-5.8756400162
94,"Jonesboro, GA",14.5415294152,4315.25,-84.3555989667,33.5211661667,11.434118312,12,0.0027808354093,3.81333573334,3.38143731452,0.0527336269311,0.140623670097,2.67700865331,2.43660172017,-5.88500388948
95,"Fort Edward, NY",8.5100994449,3271.0,-73.5842289444,43.2471031333,28.2581357392,9,0.0027514521553,2.91720747375,5.31583819724,0.0524542863387,0.140126622777,2.14125362817,3.3413814069,-5.8956264502
96,"Arlington, WA",30.5398117319,12725.0285714,-122.1389548,48.1810957,22.1421427063,35,0.00275048498347,5.52628371801,4.70554382684,0.0524450663406,0.140110202065,3.41903113513,3.09748270247,-5.89597802523
97,"Comanche, TX",26.9871734568,4408.5,-98.681600125,31.9276693833,116.63666033,12,0.00272201429058,5.19491804139,10.7998453845,0.0521729267971,0.139625090293,3.29536169597,4.75906363556,-5.90638312474
98,"Sykesville, MD",31.1730640429,4436.0,-76.970990925,39.3633921,35.3612483065,12,0.00270513976555,5.58328434194,5.94653246073,0.0520109581296,0.139335967069,3.43955438997,3.56561653993,-5.91260169868
99,"Libby, MT",96.4558559768,2613.71428571,-115.692015029,48.4483610714,170.183804585,7,0.00267818102317,9.82119422356,13.0454514903,0.0517511451388,0.138871558511,4.56908545266,5.13687905641,-5.92261743759
100,"Maybrook, NY",4.86633723054,3017.25,-74.2288991,41.476829925,9.80330482391,8,0.00265142099594,2.20597761334,3.13102296764,0.0514919507879,0.138407480703,1.5823415454,2.28271955576,-5.93265955782
101,"Towanda, PA",49.2103490931,3021.125,-76.461673025,41.6958788125,73.5041774062,8,0.00264802019115,7.01500884483,8.57345772756,0.0514589175086,0.138348279968,3.8961039488,4.29734224006,-5.93394301588
102,"Seaside, OR",18.5945756062,6424.23529412,-123.920213,45.993246,13.6370747242,17,0.00264622935209,4.31214280911,3.69284100987,0.0514415138977,0.138317084917,2.92286990411,2.61279216638,-5.93461953825
103,"Tuckerton, NJ",25.985917021,3422.55555556,-74.3453444133,39.6177300556,13.278020544,9,0.00262961399864,5.09763837684,3.64390182963,0.0512797620766,0.138026984827,3.25755473824,2.58611007752,-5.94091821214
104,"Bethel, OH",19.3926845336,2668.71428571,-84.0807664,38.9636771,94.549875048,7,0.00262298592152,4.40371258526,9.72367600489,0.0512150946648,0.137910919222,2.96489590906,4.54912747356,-5.94344194543
105,"Crescent City, CA",3.94141986973,6102.625,-124.2025913,41.7557501,208.964310022,16,0.00262182257635,1.98530095193,14.4555978784,0.0512037359609,0.137890527484,1.37154103142,5.34216347194,-5.94388556323
106,"Burgaw, NC",31.3752933431,3818.5,-77.97754471,34.52172248,48.7170837387,10,0.00261882938327,5.60136531063,6.97976244142,0.0511744993455,0.137838033449,3.44602074699,3.88602976403,-5.94502786133
107,"Shelton, WA",31.167303992,9178.04166667,-123.103924608,47.2309971167,39.7003858889,24,0.00261493691919,5.58276848812,6.30082422298,0.0511364539168,0.137769708311,3.43936959636,3.68136090777,-5.94651530444
108,"Wisconsin Dells, WI",11.5457616201,2678.0,-89.7715646,43.6256168,17.3639745947,7,0.00261389096341,3.39790547545,4.16701027053,0.0511262257888,0.1377513369,2.44631841032,2.85439763433,-5.9469153772
109,"Panama City Beach, FL",12.4337069211,10776.0,-85.8056631143,30.1770537786,4.75195398384,28,0.00259836674091,3.52614618544,2.17989770032,0.0509741771969,0.137478087808,2.5204110848,1.55855589848,-5.95287220791
110,"Pickens, SC",28.5924702035,3097.5,-82.7068706,34.9043519875,119.59108749,8,0.00258272800646,5.34719274045,10.9357710057,0.0508205470893,0.137201720464,3.35314340356,4.78407831943,-5.95890907182
111,"Mora, MN",33.4126575861,3529.0,-93.4116186667,45.8371514556,86.2651098161,9,0.00255029753471,5.78036829156,9.28790126003,0.0505004706385,0.136625034207,3.50893479784,4.45742522684,-5.97154524634
112,"Brighton, MI",38.6127153767,6736.41176471,-83.7851037765,42.5286366941,61.3966361528,17,0.00252359870415,6.21391304869,7.83560056108,0.0502354327556,0.13614658906,3.65358163613,4.11735504787,-5.98206933896
113,"Philipsburg, PA",31.7046226544,2810.85714286,-78.2205688,40.8964465,112.131502198,7,0.00249034356577,5.63068580676,10.5892163165,0.0499033422304,0.135545911391,3.45646249531,4.71967230932,-5.9953345998
114,"Dandridge, TN",41.6722447093,2812.0,-83.4212817,36.0190231143,56.6716210282,7,0.0024893314367,6.45540430254,7.52805559412,0.0498932003053,0.13552754598,3.7298353127,4.03727357447,-5.99574110388
115,"Williamson, WV",27.6814932372,3218.875,-82.25145875,37.6757616375,100.304859561,8,0.00248534037513,5.26132048417,10.0152313783,0.0498531882143,0.135455078315,3.32076407572,4.60821414405,-5.99734565693
116,"Salem, MO",54.2717281194,4834.0,-91.5359808,37.6455993,53.6221186313,12,0.00248241621845,7.36693478452,7.32271251868,0.049823851903,0.135401933708,3.99400343056,3.98196164399,-5.99852291148
117,"Sumner, WA",14.852127306,8499.14285714,-122.2312383,47.2061882,20.5553834954,21,0.00247083739537,3.85384578129,4.5338045277,0.0497075184994,0.135191085512,2.69814310792,3.02312287721,-6.00319815933
118,"Bandon, OR",35.6666948913,2850.28571429,-124.408322,43.1189125,243.359087323,7,0.00245589414595,5.97215998541,15.5999707475,0.0495569787815,0.134917995848,3.57421733714,5.49453807819,-6.00926436981
119,"Brackenridge, PA",8.41060379298,3260.0,-79.7298348875,40.6100045375,30.2486694399,8,0.00245398773006,2.90010410037,5.49987903866,0.0495377404618,0.134883076266,2.12949326605,3.40945219805,-6.01004093268
120,"Forks, WA",68.5459770156,3261.5,-124.472178138,48.105890925,124.010609778,8,0.0024528591139,8.2792497858,11.1360051086,0.0495263476738,0.134862395021,4.22750471742,4.82036712467,-6.01050094956
121,"Clementon, NJ",18.7214872961,4909.5,-74.9766994098,39.807874525,37.4079307601,12,0.00244424075771,4.32683340286,6.11620231517,0.0494392633209,0.134704259006,2.92967191747,3.62188273435,-6.01402073282
122,"Tularosa, NM",25.9548304964,2867.0,-106.0186025,33.073973,26.0835200037,7,0.00244157656087,5.09458835397,5.10720275725,0.0494123118349,0.134655299136,3.25635773859,3.26130369742,-6.01511131683
123,"Palmer, AK",1.3396454901,5736.42857143,-149.1121518,61.5994774,28.7983510401,14,0.00244054289628,1.1574305552,5.36640951103,0.0494018511422,0.134636293921,0.292405019334,3.36031812995,-6.01553476595
124,"Orland, CA",28.9375107349,6993.94117647,-122.1911356,39.7471106,100.197256247,17,0.00243067529038,5.37935969562,10.0098579534,0.0493018791769,0.134454594945,3.36513870281,4.60714080551,-6.01958616296
125,"Wellton, AZ",73.5716409392,2882.0,-113.817331914,32.7367076,30.089608973,7,0.00242886884108,8.57739126653,5.48539961835,0.0492835554834,0.134421278332,4.29825963816,3.40417989531,-6.0203296275
126,"Sebastopol, CA",13.9531584797,7434.61111111,-122.833250058,38.3845125,78.5526324981,18,0.00242110847911,3.73539268079,8.86299229934,0.0492047607362,0.134277964606,2.63570589695,4.3637688778,-6.02352979447
127,"Vero Beach, FL",2.74689630302,15294.1081081,-80.3971239885,27.6381551351,70.5931451867,37,0.00241923227811,1.65737633114,8.40197269614,0.0491856918027,0.13424327009,1.01047165723,4.25693304611,-6.0243050296
128,"Downingtown, PA",14.1481555917,7862.42105263,-75.7032742,40.0064958,37.4951540493,19,0.00241655844591,3.7614034072,6.12332867396,0.049158503292,0.134193794849,2.64958426872,3.62421169927,-6.02541088079
129,"Lake Orion, MI",15.8703187715,2899.28571429,-83.2396612,42.7844752,35.8901718744,7,0.00241438778024,3.98375686651,5.99084066508,0.0491364201,0.134153603101,2.76445062076,3.58046349407,-6.02630953116
130,"Bishop, CA",48.5570055118,3758.0,-118.3946477,37.3650412,117.272346423,9,0.00239489089941,6.9682856939,10.8292357266,0.0489376225354,0.133791516958,3.88273847911,4.764498977,-6.03441760264
131,"New Hope, PA",17.4138533159,2528.0,-74.9826094164,40.3645412,22.2369641942,6,0.00237341772152,4.17299093169,4.71560857093,0.0487177351846,0.133390446699,2.85726605703,3.10175595801,-6.04342428604
132,"Eddyville, KY",61.5657132536,2554.0,-88.0977092333,37.0826455667,71.4506462748,6,0.00234925606891,7.84638217611,8.45284841191,0.0484691249035,0.132936258844,4.12010511255,4.26900694947,-6.05365656736
133,"Mount Pocono, PA",19.596580469,2986.57142857,-75.3829618286,41.1361997286,10.0971082588,7,0.00234382473931,4.42680251073,3.17759472853,0.0484130637257,0.132833733086,2.97535508515,2.31224907184,-6.05597117998
134,"Scottsville, KY",31.0933283555,3868.66666667,-86.1907499444,36.7533245444,80.967696686,9,0.00232638290539,5.576139198,8.99820519248,0.0482325917342,0.132503413329,3.43699327384,4.39405026878,-6.06344061875
135,"Williamston, SC",28.4322317063,3870.44444444,-82.4657133556,34.6317193778,113.625049155,9,0.00232531434805,5.33218826621,10.6595051084,0.0482215133322,0.132483123006,3.34752342087,4.7329039851,-6.06390004562
136,"Nekoosa, WI",19.7505797695,2581.66666667,-89.9971385117,44.29278355,19.0394598121,6,0.00232408005165,4.44416243734,4.36342294674,0.0482087134411,0.132459677806,2.98318284633,2.94651365775,-6.06443099495
137,"Kill Devil Hills, NC",1.30909436192,6473.4,-75.6754678,36.0296296267,38.6188277261,15,0.00231717490036,1.14415661599,6.21440485695,0.0481370429125,0.132328362555,0.269335571358,3.65373992248,-6.06740655068
138,"Scappoose, OR",1.80951756097,5610.53846154,-122.8743589,45.7572997,28.7849595155,13,0.00231706815471,1.3451830957,5.36516164859,0.0481359341315,0.132326330526,0.593060268849,3.35985301168,-6.0674526189
139,"Lake Wales, FL",3.49233791598,12561.2413793,-81.5892790103,27.9009203655,45.4081997738,29,0.00230868901602,1.86877979334,6.73856066039,0.0480488190908,0.132166628719,1.2505714019,3.8156927005,-6.07107544108
140,"Woodinville, WA",7.48395062704,9590.36363636,-122.1588902,47.7545827,26.5527576959,22,0.00229396932527,2.73568101705,5.15293680302,0.0478953998341,0.131885141233,2.01276081125,3.27913361031,-6.07747163209
141,"Indian Rocks Beach, FL",12.7225105909,3952.22222222,-82.8453411779,27.8918562111,34.2944109788,9,0.00227719988755,3.56686285003,5.85614301215,0.0477200155862,0.131562984811,2.54337291193,3.53498239567,-6.08480871027
142,"Seward, AK",0.852763396133,2635.5,-149.414953527,60.119514,121.234906996,6,0.0022766078543,0.923451891618,11.0106724134,0.0477138119866,0.131551582443,-0.159273148475,4.79773004369,-6.08506872707
143,"Brooksville, FL",37.1612640586,7480.17647059,-82.3878709,28.5552719,54.6063063156,17,0.00227267365507,6.09600394181,7.38960799472,0.0476725671123,0.131475760785,3.61526693001,4.00014937637,-6.08679831896
144,"Buckeye, AZ",13.6712210138,39338.494382,-112.57799973,33.394272991,24.1404700406,89,0.00226241500592,3.6974614283,4.91329523239,0.0475648505297,0.131277639041,2.61529296743,3.18388968692,-6.09132244954
145,"Hamilton, TX",72.4675883051,3095.0,-98.1749564714,31.7415024857,84.621507685,7,0.00226171243942,8.51278968994,9.19899492798,0.0475574646025,0.131264048722,4.28313940404,4.43818846226,-6.09163303606
146,"Brookings, OR",33.3206046927,6209.0,-124.315577141,42.0741015,213.111155772,14,0.00225479143179,5.77240025403,14.5983271566,0.0474846441683,0.131130019345,3.50617596517,5.36181388767,-6.09469780175
147,"Deer Park, WA",32.3157982387,3572.625,-117.515999475,47.981180525,37.2891103779,8,0.0022392498513,5.68469860579,6.10648101429,0.0473207127091,0.130828044907,3.47555622021,3.61870133705,-6.10161435702
148,"Onalaska, WI",0.220168687659,16079.5277778,-91.246873876,43.8814569833,48.7253226359,36,0.00223887171922,0.469221363174,6.98035261544,0.0473167171221,0.130820680377,-1.51336126436,3.88619886694,-6.10178323679
149,"Camden, TN",87.9027926425,3573.25,-88.1007647625,36.0389669625,55.6307069523,8,0.00223885818233,9.37564891847,7.45859953023,0.0473165740764,0.130820416716,4.47623157486,4.01873533212,-6.10178928311
150,"Hillsville, VA",72.6436432742,2681.0,-80.7139606,36.7718415667,43.2342824203,6,0.00223797090638,8.52312403255,6.57527812494,0.0473071971943,0.130803132735,4.28556588824,3.76663375508,-6.10218566901
151,"Placerville, CA",37.7887812513,9413.71428571,-120.807276476,38.7363181714,64.7644895581,21,0.00223078790822,6.14725802706,8.04763875669,0.0472312175179,0.130663040706,3.63201226628,4.1707574525,-6.10540043384
152,"Monroe, WA",11.2148438991,15252.5,-121.9706154,47.8560266,23.8646235201,34,0.00222914276348,3.34885710342,4.88514314223,0.0472137984437,0.130630912673,2.41723824894,3.17239717493,-6.10613817841
153,"Hugo, OK",98.5425082244,5385.33333333,-95.5071758678,34.021313525,24.6317830248,12,0.00222827432533,9.92685792305,4.96304171097,0.0472046006797,0.130613946569,4.59048801066,3.20403760191,-6.10652783823
154,"Silver City, NM",19.0251779989,10405.0,-108.303192322,32.7723940304,164.61296295,23,0.00221047573282,4.36178610192,12.8301583369,0.0470156966642,0.130265251959,2.94576325976,5.10359703939,-6.1145475229
155,"Osage Beach, MO",8.50308554283,4079.77777778,-92.6179621,38.1503113,60.4393394917,9,0.00220600250558,2.91600506564,7.77427420996,0.0469681009365,0.130177322232,2.14042910266,4.10164020901,-6.11657322235
156,"Columbia Falls, MT",9.53535908186,4108.55555556,-114.133789984,48.4062917278,232.893084465,9,0.00219055088298,3.08793767454,15.2608349858,0.0468033212815,0.129872673814,2.25500689769,5.4505794833,-6.12360222205
157,"Eatonville, WA",39.9277546686,2758.0,-122.171592567,46.8055953,42.5563030446,6,0.00217548948513,6.31884124413,6.52351922236,0.0466421428017,0.129574337251,3.6870716878,3.75082797671,-6.13050158913
158,"Dahlonega, GA",31.5398952381,4600.4,-83.98816933,34.54242977,83.3722257061,10,0.002173724024,5.61603910582,9.13083926625,0.0466232133598,0.129539276886,3.45125325997,4.42331522879,-6.13131344222
159,"Westlake, LA",13.1683497804,4608.0,-93.2507099,30.2421496,96.6307164827,10,0.00217013888889,3.62882209269,9.83009239441,0.0465847495312,0.129468021081,2.57781620649,4.57089666669,-6.13296410938
160,"Mammoth Lakes, CA",27.5819635883,6916.6,-118.958390745,37.6016043733,74.0244772073,15,0.00216869560189,5.25185334794,8.60374785819,0.0465692559731,0.129439313095,3.31716206593,4.30439581158,-6.13362939729
161,"Kitty Hawk, NC",5.91005426783,3231.85714286,-75.7057348,36.0646102,41.1025687881,7,0.00216593732043,2.4310603176,6.41112851128,0.0465396317178,0.1293844135,1.77665501375,3.71607062048,-6.13490206876
162,"Van Alstyne, TX",27.110356616,2774.0,-96.5772109,33.4214995,83.2630645165,6,0.00216294160058,5.20676066437,9.12485969846,0.0465074359708,0.129324735213,3.29991581783,4.42200504768,-6.13628613165
163,"Benton, KY",43.8152698807,4187.77777778,-88.2921647222,36.8382034444,79.7529285815,9,0.00214911117007,6.61931037803,8.93044951733,0.0463585069871,0.129048499883,3.77998238404,4.37893346302,-6.14270093159
164,"Denver, PA",18.327397122,3728.75,-76.1371684,40.2331483,45.3397464986,8,0.00214549111633,4.28105093663,6.73347952389,0.0463194464164,0.12897600091,2.90839705079,3.81418405394,-6.14438679415
165,"North Wilkesboro, NC",47.0967484374,4216.33333333,-81.1475841,36.1584651,105.850224123,9,0.00213455609139,6.86270707792,10.2883538102,0.0462012563832,0.128756508248,3.85220396334,4.66202511494,-6.14949657364
166,"Howell, MI",42.6140917585,8909.21052632,-83.9293952,42.6072552,74.1168731535,19,0.00213262442771,6.52794697884,8.60911570102,0.046180346769,0.128717657183,3.75218499103,4.30564321426,-6.15040193202
167,"Madison, GA",5.37383300541,3757.125,-83.4048862,33.5981814,40.432235826,8,0.00212928768673,2.31815292969,6.35863474545,0.0461442053429,0.128650490852,1.68154143517,3.69962738329,-6.15196777457
168,"Southport, NC",38.4519023664,2833.0,-78.0202677,33.921563,10.1342730881,6,0.00211789622309,6.20095979397,3.18343730708,0.046020606505,0.128420658336,3.6494081711,2.3159230544,-6.1573320306
169,"Oxford, MI",20.3931803531,3307.42857143,-83.2746567,42.8418574,42.8691413566,7,0.00211644782308,4.51588090555,6.54745304348,0.0460048673847,0.128391376621,3.01520054854,3.75815225141,-6.15801615076
170,"Estes Park, CO",41.9800068942,4733.5,-105.515004445,40.30331268,80.3980190609,10,0.00211260166896,6.4791980132,8.96649424585,0.0459630467762,0.12831355559,3.73719347862,4.38698953734,-6.15983507257
171,"Florence, OR",0.922597805397,7582.8125,-124.0998409,43.9826214,214.672090248,16,0.00211003502988,0.960519549721,14.6516924022,0.0459351176104,0.128261571023,-0.0805618865768,5.36911170225,-6.16105072979
172,"South Point, OH",6.19931493104,3796.0,-82.5862699,38.4178597,86.7881419294,8,0.00210748155954,2.48984235064,9.31601534613,0.0459073148805,0.128209811326,1.82443879095,4.46346999862,-6.16226161805
173,"Plover, WI",9.53677191576,11388.2916667,-89.5079330167,44.4611702833,56.6040465542,24,0.00210742758462,3.08816643265,7.52356607961,0.0459067270083,0.128208716786,2.25515505459,4.03608047654,-6.16228722948
174,"Tupper Lake, NY",25.5650775321,3801.0,-74.4678874311,44.1183244688,105.233669247,8,0.00210470928703,5.05619199914,10.2583463213,0.0458771107093,0.128153569079,3.24122726127,4.65618329897,-6.16357792731
175,"Luray, VA",3.52319323822,4756.7,-78.4600202,38.6654653,76.8320867616,10,0.00210229781151,1.87701711186,8.7653914209,0.0458508212741,0.128104606292,1.25936774833,4.34162234928,-6.16472433649
176,"Sylvania, GA",12.2688491678,2862.33333333,-81.6130506167,32.72571485,87.572626275,6,0.00209619191802,3.50269170322,9.35802469942,0.0457841885154,0.127980464101,2.50706346197,4.47246846366,-6.16763295278
177,"Grass Valley, CA",30.4223241716,11527.0416667,-121.068536671,39.228984,28.3095365444,24,0.0020820606617,5.51564358635,5.32067068558,0.0456296029098,0.127692226494,3.41517668666,3.34319872825,-6.17439717295
178,"Fayetteville, WV",29.5852380931,2892.0,-81.1039911,38.0528884,55.4901278726,6,0.00207468879668,5.43923138808,7.4491696096,0.0455487518674,0.127541343438,3.38727552386,4.01620512876,-6.17794411405
179,"Nazareth, PA",14.8347756481,5815.25,-75.3171164,40.7432658,51.6129902234,12,0.00206353983062,3.85159391007,7.18421813584,0.0454262020272,0.127312472351,2.69697413048,3.94377338932,-6.1833324065
180,"Kingwood, WV",17.8452109118,2930.33333333,-79.7445005667,39.5316591667,13.4514069682,6,0.00204754862928,4.22435923091,3.66761597883,0.0452498467321,0.126982753962,2.88173517597,2.59908370788,-6.19111199196
181,"Mount Gilead, OH",33.2153657546,3436.71428571,-82.7771661,40.4574358,46.0225555564,7,0.00203682919732,5.76327734493,6.78399259702,0.0451312441367,0.126760770581,3.50301259279,3.8291316145,-6.19636099536
182,"Kelso, WA",2.73652221165,11785.5,-122.9060318,46.1420334,66.0605731608,24,0.00203640066183,1.65424369778,8.12776557,0.0451264962282,0.12675188008,1.00668784838,4.19057209629,-6.19657141094
183,"Baltimore, OH",24.5865384703,2951.83333333,-82.6350266667,39.7980662167,25.4459153003,6,0.00203263508554,4.95848146818,5.04439444337,0.0450847544691,0.126673704833,3.20219907651,3.23655523111,-6.198422256
184,"Weed, CA",97.8943586616,2957.83333333,-122.3861269,41.4226498,98.1215985084,6,0.00202851186116,9.89415780456,9.90563468478,0.0450390037763,0.126587993814,4.5838889244,4.58620751062,-6.20045282808
185,"Tomahawk, WI",27.0988914786,3468.85714286,-89.7298594,45.4710792,143.573143105,7,0.00201795568734,5.2056595623,11.982201096,0.0449216616716,0.126368028039,3.2994928222,4.96684461339,-6.20567031599
186,"Owego, NY",17.9912654589,3966.125,-76.2623264,42.1346290375,57.5461645531,8,0.00201708216458,4.24161118667,7.58591883381,0.0449119378849,0.12634979155,2.88988638784,4.05258748748,-6.20610328481
187,"Fairfield, TX",35.7889692103,2974.83333333,-96.151459675,31.7170287333,137.782962399,6,0.00201691971539,5.98238825306,11.7380987557,0.0449101293183,0.126346399526,3.57763972331,4.92567971087,-6.20618382477
188,"Tomball, TX",7.17959681341,10436.047619,-95.6267131495,30.0719938571,68.3489870891,21,0.00201225605388,2.67947696639,8.26734462141,0.0448581771128,0.126248942071,1.97124322736,4.22462674359,-6.20849877148
189,"Gaylord, MI",39.8580666653,3479.28571429,-84.6726889857,45.0439808429,38.9210404561,7,0.00201190720591,6.3133245335,6.23867297236,0.0448542886011,0.126241646076,3.68532481048,3.66153499016,-6.20867214813
190,"Fairport, NY",18.7469514639,5479.45454545,-77.4430139,43.0992996,109.090277033,11,0.0020074990875,4.32977498999,10.4446290998,0.0448051234515,0.126149379554,2.93103115061,4.6921757691,-6.21086556669
191,"Hamilton, MT",73.5656882096,3985.875,-114.150075243,46.2122874,162.767516329,8,0.00200708752783,8.57704425834,12.7580373228,0.0448005304414,0.126140758289,4.29817872423,5.09232290251,-6.21107059884
192,"Cashmere, WA",21.5449677538,2997.66666667,-120.4451916,47.50452835,92.2191266406,6,0.00200155676637,4.64165571254,9.60307901876,0.0447387613415,0.126024786557,3.07014227437,4.52416755634,-6.21383001802
193,"Nevada City, CA",36.213716661,2999.0,-121.030690067,39.27952325,33.9976744514,6,0.00200066688896,6.01778336774,5.83075247729,0.0447288149738,0.126006107224,3.58943796035,3.52629212379,-6.21427470952
194,"Willcox, AZ",60.2051220266,3506.85714286,-109.694028086,32.2435316714,20.9801864424,7,0.00199608929444,7.75919596521,4.58041334842,0.0446776151383,0.125909931736,4.09775743219,3.0435784896,-6.2165653654
195,"Martinsburg, WV",34.4489603209,16547.030303,-77.9753066667,39.4830559182,6.38940329981,33,0.00199431555969,5.8693236681,2.52772690372,0.0446577603524,0.125872625956,3.53947881764,1.85464088372,-6.21745436535
196,"Hogansville, GA",20.471643862,3012.33333333,-84.9272048333,33.1736398167,73.7777015205,6,0.00199181144185,4.52456007386,8.58939471211,0.0446297147857,0.125819920839,3.01904070236,4.30105653853,-6.21871078201
197,"Stroudsburg, PA",6.15902814541,5543.81818182,-75.1946248,40.9867609,30.7223495785,11,0.00198419205667,2.48173893579,5.54277453795,0.0445442707503,0.125659280556,1.8179189965,3.42499038903,-6.22254347205
198,"Port Angeles, WA",2.87447394501,18655.6216216,-123.4307413,48.118146,52.7584938812,37,0.00198331638315,1.69542736353,7.26350424253,0.0445344404158,0.125640792309,1.05586968186,3.96572478084,-6.22298489444
199,"Flemington, NJ",16.1015459052,4538.66666667,-74.8228832491,40.5014769222,45.3068838534,9,0.00198296122209,4.01267316202,6.73103883909,0.0445304527497,0.125633292181,2.77891528634,3.81345898239,-6.22316398481
200,"New Port Richey, FL",30.3721354457,15134.6,-82.7170237177,28.2471345,49.6163513839,30,0.00198221294253,5.51109203749,7.04388751925,0.044522050071,0.125617487425,3.4135255909,3.9043204444,-6.22354141064
201,"Fellsmere, FL",15.24633105,5058.6,-80.65242162,27.70327242,60.2474260826,10,0.00197683153442,3.90465504878,7.76192154576,0.0444615736835,0.125503706909,2.72433888722,4.09845985084,-6.22625995116
202,"Bloomingdale, NJ",15.3974472954,7635.33333333,-74.5725743467,40.5858434267,46.0540112289,15,0.00196455077272,3.92395811591,6.78631057563,0.044323253183,0.125243276045,2.73420173564,3.82981486486,-6.23249167419
203,"Port Townsend, WA",7.86429836377,8658.88235294,-122.754616965,48.1092051471,7.67412278907,17,0.00196330187974,2.80433563679,2.77022071126,0.0443091624807,0.125216730773,2.06233332258,2.03785399236,-6.23312759062
204,"Fairbanks, AK",4.82018880597,29599.4827586,-147.7163952,64.8377802,0.134354664405,58,0.00195949370038,2.19549283897,0.366544218895,0.0442661688017,0.125135718199,1.57281309866,-2.00727222621,-6.23506915524
205,"Ringgold, GA",15.8306677934,3580.0,-85.1091173,34.9159099,10.3209292804,7,0.00195530726257,3.97877717313,3.21262031376,0.0442188564141,0.125046537607,2.76194905831,2.33417380255,-6.23720793034
206,"Winters, TX",52.6048794931,2562.0,-99.93811304,31.9613601,52.3741183516,5,0.00195160031226,7.25292213477,7.23699650073,0.0441769205837,0.124967464861,3.96280888147,3.95841254472,-6.23910557002
207,"Cotulla, TX",2.62755665017,3603.0,-99.2350322,28.436934,61.949984752,7,0.00194282542326,1.62097398195,7.87083126182,0.0440774933867,0.124779888331,0.96605438402,4.12632736194,-6.24361196169
208,"Ogallala, NE",86.8062038863,4637.55555556,-101.7260247,41.1434819333,262.959487858,9,0.00194067756002,9.31698469926,16.2160256493,0.0440531220235,0.124733888493,4.46367809246,5.57199998175,-6.24471810914
209,"Cottonwood, AZ",2.51294204694,10321.0,-112.0098791,34.7391876,53.0834843571,20,0.00193779672512,1.58522618163,7.28584136233,0.044020412596,0.124672137604,0.92145419699,3.97186585081,-6.24620366001
210,"Woodville, TX",60.1606706756,2586.0,-94.45303274,30.83197694,134.842598366,5,0.00193348801237,7.75633100606,11.6121745752,0.0439714454206,0.124579665734,4.09701882778,4.90410816017,-6.2484296469
211,"Chester, WV",22.8647733547,2586.4,-80.5628478,40.6131203,28.9591381432,5,0.00193318898856,4.78171238728,5.38136954159,0.0439680450845,0.124573243109,3.12959744474,3.36588580683,-6.24858431398
212,"Hazard, KY",65.3518171612,4708.0,-83.1863453889,37.2590462,92.2327440336,9,0.00191163976211,8.08404707812,9.60378800441,0.0437223027997,0.124108640526,4.17978524628,4.52431520888,-6.25979389104
213,"Salida, CO",81.2529499557,5232.0,-105.9989023,38.5347193,107.491255764,10,0.00191131498471,9.01404182128,10.3677989836,0.0437185885489,0.124101611663,4.3975671277,4.67740950253,-6.25996380014
214,"Folly Beach, SC",14.1095286515,2617.0,-79.9406093,32.6549967,27.6078963602,5,0.0019105846389,3.75626525308,5.25432168412,0.0437102349445,0.12408580254,2.64685036003,3.31810183181,-6.2603459901
215,"Kalispell, MT",12.8450862974,17805.0882353,-114.331022482,48.1969983559,234.957008228,34,0.00190956649867,3.58400422676,15.3283074156,0.0436985869185,0.124063757073,2.5529613489,5.4594025537,-6.26087902673
216,"Boyne City, MI",26.6559502866,3668.71428571,-84.9801284571,45.2034736143,61.1467586139,7,0.00190802538842,5.16294008164,7.81963928924,0.0436809499487,0.124030372989,3.28301240098,4.1132768536,-6.26168639975
217,"Lakewood, NY",11.5755722194,3145.66666667,-79.3763442833,42.1452426167,113.673489252,6,0.00190738582177,3.40228926157,10.6617770213,0.0436736284474,0.124016513188,2.44889703455,4.73333020956,-6.26202165413
218,"Omak, WA",72.6334894729,4722.77777778,-119.583193756,48.4575924111,165.849084321,9,0.00190565815786,8.52252834979,12.8782407308,0.0436538447088,0.123979058158,4.28542610298,5.11107824425,-6.26292784038
219,"Cave Creek, AZ",5.16293039902,4729.0,-111.9507042,33.8333716,50.7486860529,9,0.00190315077183,2.27220826489,7.12381120278,0.0436251162959,0.12392465879,1.64150432508,3.926885727,-6.26424446531
220,"Moncks Corner, SC",33.1628577409,7885.0,-79.9879360333,33.1983393133,28.561927321,15,0.00190234622701,5.75872014782,5.34433600375,0.0436158942017,0.123907193543,3.50143050692,3.35207461842,-6.26466729829
221,"Bellows Falls, VT",30.2530983006,3156.5,-72.44469435,43.09628515,89.9227083354,6,0.00190083953746,5.50028165648,9.48275847712,0.043598618527,0.123874472724,3.40959860239,4.49895050508,-6.26545962858
222,"New Freedom, PA",9.16543955363,4226.0,-76.686429975,39.705381475,49.6903908725,8,0.00189304306673,3.02744769627,7.04914114432,0.0435091147546,0.123704879742,2.21543984017,3.9058115718,-6.2695696565
223,"Cape Canaveral, FL",2.13236537003,8982.88235294,-80.6070358706,28.3893460118,9.29321315955,17,0.00189248832747,1.4602620895,3.04847718698,0.04350273931,0.123692795027,0.757231865931,2.22928436596,-6.26986274045
224,"Puyallup, WA",11.6282358027,33845.921875,-122.292186809,47.1843679156,15.3978855778,64,0.00189092205071,3.41001991236,3.92401396249,0.0434847335361,0.123658661726,2.45343626136,2.73423019985,-6.27069071136
225,"Holly, MI",21.4750342357,5827.36363636,-83.6277255,42.7919727,58.3342692262,11,0.00188764605856,4.63411633817,7.63768742658,0.0434470489051,0.123587208229,3.06689106208,4.066189729,-6.27242469781
226,"Mechanicsburg, PA",12.1615207581,9025.11764706,-77.0047276,40.2101972,14.6641701689,17,0.00188363195526,3.48733720166,3.82938247879,0.0434008289698,0.123499542804,2.49827693106,2.685407115,-6.27455347475
227,"Ellisville, MS",20.2906846942,4252.125,-89.1784278125,31.58316875,47.1522742571,8,0.00188141223506,4.50451825329,6.86675136124,0.0433752491066,0.123451012059,3.01016189867,3.85338224243,-6.27573259528
228,"Creswell, OR",16.1885911727,4260.375,-123.005775512,43.924777475,163.238655977,8,0.00187776897574,4.02350483692,12.7764884055,0.0433332317712,0.123371275028,2.78430674554,5.09521327709,-6.27767092188
229,"Auburn, CA",24.0543939136,12262.6086957,-121.071398313,38.8919985174,34.7872592634,23,0.00187562047936,4.90452789916,5.89807250408,0.0433084342751,0.123324204294,3.18031767897,3.54925120662,-6.27881575197
230,"Pittsboro, NC",39.2670210651,3743.0,-79.1489354,35.6923027429,63.1535302747,7,0.00187015762757,6.26634032471,7.94691954626,0.0432453191406,0.123204358269,3.67038500794,4.14556875024,-6.28173255885
231,"Bunnell, FL",24.369107825,2676.0,-81.2696755,29.47669712,59.0363728694,5,0.00186846038864,4.93650765471,7.6835130552,0.0432256913032,0.123167076113,3.19331625741,4.07815374327,-6.28264050881
232,"Webster, NY",22.2347162704,5362.4,-77.4299939,43.2122851,108.663593719,10,0.00186483664031,4.71537021562,10.42418312,0.0431837543564,0.123087399937,3.10165486339,4.68825681364,-6.28458182205
233,"Grand Blanc, MI",10.1669726031,8059.6,-83.6299518,42.9275277,68.0219011487,15,0.00186113454762,3.18856905258,8.24753909652,0.043140868647,0.123005894525,2.3191444866,4.21982972904,-6.28656900538
234,"Wenatchee, WA",8.34702660772,29026.1481481,-120.3103494,47.4234599,83.9651764069,54,0.00186039152437,2.88912211714,9.16325141022,0.0431322561939,0.122989523076,2.12190538056,4.4304021463,-6.28696831643
235,"Fort Bragg, CA",72.6330077023,6988.69230769,-123.801376946,39.4447463923,205.841548769,13,0.00186014771114,8.5225000852,14.3471791224,0.0431294297567,0.122984150053,4.28541947005,5.32710669209,-6.28709937982
236,"Raeford, NC",28.4614919372,4304.75,-79.224685875,34.984749675,25.6444636555,8,0.00185841221906,5.33493129639,5.06403630077,0.0431093054811,0.122945890648,3.34855201354,3.24432770643,-6.28803280149
237,"Williamsville, NY",2.62550998714,5409.2,-78.7377258,42.9637836,22.7106846478,10,0.00184870221105,1.62034255241,4.76557285621,0.0429965371983,0.122731390192,0.965275157989,3.12283550308,-6.29327139361
238,"Travelers Rest, SC",21.9840500698,4328.0,-82.4434548,34.9676167,139.278916461,8,0.00184842883549,4.68871518327,11.8016488874,0.0429933580392,0.122725340287,3.09031719359,4.93647851586,-6.29341927885
239,"Southern Shores, NC",18.3119497641,2714.0,-75.7504627,36.16349706,51.2837863651,5,0.00184229918939,4.27924640142,7.16126988495,0.0429220128767,0.122589531979,2.90755383931,3.93737464696,-6.29674092796
240,"Del Mar, CA",7.32196450941,4353.5,-117.2653146,32.9594891,20.59336317,8,0.00183760192948,2.70591287912,4.53799109409,0.0428672594118,0.122485255579,1.99087866757,3.02496884767,-6.29929385659
241,"Ravena, NY",19.6386960151,3268.0,-73.8064666167,42.4590633,29.3992503901,6,0.00183598531212,4.43155683875,5.42210755981,0.042848399178,0.122449326527,2.97750190638,3.38096917708,-6.30017398675
242,"Traverse City, MI",3.44846426621,14723.8518519,-85.6080064407,44.7614812852,70.920884956,27,0.00183375928199,1.85700411045,8.42145385049,0.0428224156487,0.122399818846,1.23792899171,4.26156495936,-6.30138716677
243,"Holton, KS",24.5985701751,3282.0,-95.71644035,39.4662025667,57.5333794225,6,0.0018281535649,4.9596945647,7.58507609866,0.0427569124809,0.122274968015,3.20268831829,4.05236529107,-6.30444880242
244,"Stanton, KY",68.9117972301,2745.4,-83.82741814,37.83552656,39.5772772579,5,0.00182122823632,8.3013129823,6.29104738958,0.0426758507393,0.122120373808,4.23282738586,3.67825514695,-6.30824415038
245,"New Hope, AL",36.6514701572,2755.8,-86.29420662,34.58986572,35.2796123248,5,0.00181435517817,6.05404576768,5.93966432762,0.0425952483051,0.121966558472,3.60145354096,3.56330524255,-6.31202514813
246,"Poland, OH",8.70251734258,2771.8,-80.6147954,41.0242258,26.489633503,5,0.00180388195396,2.95000293942,5.14680808881,0.0424721314978,0.121731424634,2.16361233353,3.27675346789,-6.3178142952
247,"Avalon, CA",10.8493093231,3327.33333333,-118.3252537,33.3433707,50.8639553278,6,0.00180324584252,3.29382897599,7.1318970357,0.0424646422629,0.121717114042,2.3841014211,3.9291545259,-6.31816699213
248,"Clifton Forge, VA",50.706240665,3884.0,-79.8234263,37.8069892857,88.9067703757,7,0.00180226570546,7.12083145883,9.42903867718,0.0424531000689,0.12169505732,3.92604899306,4.48758829683,-6.31871068036
249,"Morehead, KY",79.0105365614,6669.91666667,-83.4326841,38.1839705,91.4598488138,12,0.00179912292757,8.88878712544,9.56346426844,0.0424160692141,0.121624279177,4.36958121777,4.5159000652,-6.32045599529
250,"Olympia, WA",8.42813863332,42915.961039,-122.89471363,47.0457674455,21.4753021601,77,0.00179420425725,2.90312566613,4.6341452459,0.0423580483173,0.121513340725,2.13157594494,3.06690353809,-6.32319366606
251,"Colfax, WA",29.4621959019,2795.0,-117.27334628,46.95644614,74.411203497,5,0.00178890876565,5.42790898062,8.62619287386,0.0422954934438,0.121393676354,3.38310794668,4.30960651514,-6.32614947316
252,"Ojai, CA",19.4075612933,7277.61538462,-119.242889,34.4480495,38.3321677322,13,0.00178629940069,4.40540137709,6.19129774217,0.0422646353432,0.121334624611,2.96566274752,3.64628943225,-6.32760917301
253,"Granite Falls, WA",22.0479816556,3364.0,-121.720590956,48.0811363583,21.3201486926,6,0.00178359096314,4.69552783568,4.6173746537,0.0422325817721,0.121273269931,3.09322106281,3.0596525736,-6.32912655186
254,"Lake Geneva, WI",4.42183305845,7300.30769231,-88.4334301,42.5916836,57.2455189537,13,0.00178074685998,2.10281550747,7.56607685354,0.0421988964309,0.121208775102,1.48655432922,4.04734936782,-6.33072241842
255,"Saugerties, NY",14.0299822467,3958.28571429,-73.9536267286,42.0866777429,65.674898424,7,0.00176844232713,3.74566179022,8.10400508539,0.0420528515933,0.12092895511,2.64119662873,4.18471678892,-6.33765616103
256,"Honesdale, PA",28.6713947329,4529.25,-75.207083575,41.6217552125,39.6058235462,8,0.00176629684826,5.35456765135,6.29331578313,0.0420273345368,0.120880031545,3.35589992653,3.6789761667,-6.33887010018
257,"Pismo Beach, CA",4.90223284375,7940.35714286,-120.6457273,35.144539,22.2968566294,14,0.00176314487474,2.21409865267,4.72195474665,0.0419898187033,0.120808084876,1.58969078372,3.10444571021,-6.34065620382
258,"Flowery Branch, GA",13.681529642,5679.0,-83.9276939,34.179653,56.1624411421,10,0.0017608733932,3.69885517992,7.49416046947,0.0419627619825,0.12075618306,2.61604672188,4.0282482264,-6.34194534688
259,"Hephzibah, GA",13.7716497903,3992.28571429,-82.1311118857,33.2995076714,13.755071273,7,0.00175338152151,3.71101735247,3.70878299082,0.0418733987336,0.12058468182,2.62261211604,2.62140757597,-6.34620905753
260,"Northport, NY",20.3749472855,7461.46153846,-73.3419912726,40.9038855,60.0882308087,13,0.00174228600295,4.51386168214,7.75165987442,0.0417406995982,0.120329787352,3.01430607191,4.09581399555,-6.35255723323
261,"Ford City, PA",30.9304043568,3453.0,-79.5318423,40.7696218,53.5674864057,6,0.00173761946134,5.56151097785,7.31898124097,0.0416847629397,0.120222260796,3.4317396599,3.98094228711,-6.35523922816
262,"Amery, WI",49.9057286223,2879.2,-92.3621369,45.3069062,66.4499255043,5,0.00173659349819,7.06439867379,8.15168237263,0.0416724549096,0.120198594722,3.91013579822,4.19644866408,-6.35582984433
263,"Orange Beach, AL",9.40858680195,4612.5,-87.5573188013,30.306164125,5.27681899121,8,0.00173441734417,3.06734197669,2.29713277614,0.0416463365036,0.12014836612,2.24162276187,1.66332345238,-6.35708374667
264,"Cannon Falls, MN",31.058521071,4041.85714286,-92.8990665854,44.5297448571,47.8585207601,7,0.00173187714276,5.57301723225,6.91798531078,0.0416158280316,0.120089681635,3.43587320136,3.86824917436,-6.3585494051
265,"Paw Paw, MI",30.3542759124,3477.0,-85.8833506,42.3131851,45.8456627639,6,0.00172562553926,5.50947147305,6.77094253143,0.0415406492397,0.119945010436,3.41293739432,3.82528059802,-6.36216566278
266,"Yadkinville, NC",39.2906150127,2902.6,-80.6595079,36.1345807,104.79301541,5,0.00172259353683,6.26822263586,10.2368459698,0.0415041387916,0.119874719642,3.67098568661,4.65198712281,-6.3639242536
267,"International Falls, MN",3.92008090599,6402.18181818,-93.4820838367,48.5970619727,215.86570003,11,0.00171816426218,1.97991941906,14.6923687685,0.0414507450136,0.119771887531,1.36611229287,5.37465645519,-6.36649884754
268,"Hamburg, NY",7.54696467079,9904.70588235,-78.8280775022,42.7243499,42.803421848,17,0.00171635586174,2.74717394258,6.54243241066,0.0414289254234,0.119729852053,2.02114545207,3.75661804911,-6.36755192078
269,"Lewisburg, PA",0.314299982497,5831.8,-76.8844101,40.9645293,63.134337422,10,0.00171473644501,0.560624636006,7.94571188894,0.0414093762934,0.119692184352,-1.15740739087,4.14526479621,-6.36849588655
270,"Washougal, WA",5.50659258041,10503.2222222,-122.338279083,45.5736238833,19.0165230223,18,0.00171375979858,2.34661300184,4.3607938523,0.0413975820378,0.11966945605,1.70594602541,2.94530823401,-6.36906560948
271,"Fallon, NV",9.20243677906,7019.58333333,-118.7783956,39.4738129,8.51876567865,12,0.00170950317564,3.03355184216,2.91869246044,0.041346138582,0.119570295893,2.21946831627,2.14227145695,-6.37155249124
272,"Destin, FL",2.44159116796,11737.95,-86.4957834,30.3935337,18.7172808423,20,0.0017038750378,1.56255917263,4.32634728637,0.0412780212438,0.119438932584,0.892649944785,2.92944720635,-6.37485018789
273,"Brighton, AL",22.9601483256,3524.16666667,-86.9489207741,33.442218,23.0830623424,6,0.00170253014897,4.79167489774,4.80448356667,0.0412617274114,0.119407499456,3.1337600316,3.13909911665,-6.37563981145
274,"Gladwin, MI",7.0332373944,2946.6,-84.3873235,43.9747774,82.8574149757,5,0.00169687096993,2.65202514965,9.10260484563,0.0411930937164,0.119275049813,1.95064711111,4.41712123867,-6.37896932984
275,"Vail, CO",45.3573529998,4724.5,-106.3862088,39.6426439,132.231649588,8,0.0016933008784,6.73478678206,11.4992021283,0.0411497372823,0.119191342441,3.81457230233,4.88455530563,-6.38107547254
276,"West Chester, PA",22.2113769458,18352.6129032,-75.6054913484,39.9568843968,31.6029475698,31,0.00168913277709,4.71289475225,5.62164989748,0.0410990605377,0.119093464625,3.10060463264,3.45325039377,-6.38354003141
277,"Homer, NY",34.6274521782,3560.5,-76.1863315167,42.7418960833,39.5120852761,6,0.00168515657913,5.88450951042,6.2858639244,0.041050658693,0.118999943016,3.54464678303,3.67660658147,-6.38589679419
278,"Ashland City, TN",38.4287250677,4155.28571429,-87.0862337571,36.2850934143,38.7772745556,7,0.00168460136831,6.19909066458,6.22714015866,0.0410438956278,0.118986872556,3.64880522858,3.65783436771,-6.38622631984
279,"Livingston, TX",60.7138502745,5345.88888889,-94.9345020778,30.6993010556,124.747128807,9,0.00168353667408,7.791909283,11.1690254189,0.0410309233881,0.118961800089,4.10617184789,4.82628871879,-6.38685853518
280,"Longwood, FL",13.8542632932,13676.1304348,-81.3492778714,28.7007225,54.2811620017,23,0.00168176225795,3.72213155238,7.36757504215,0.0410092947751,0.118919990894,2.62859300427,3.99417724229,-6.38791307228
281,"Quartzsite, AZ",45.35076471,3569.33333333,-114.182400767,33.6665533333,60.1497285206,6,0.00168098617856,6.73429764044,7.75562560472,0.0409998314455,0.118901695491,3.81442703882,4.09683692904,-6.38837464674
282,"North East, MD",22.6769660937,3572.0,-75.9453445833,39.603455,21.5207045878,6,0.001679731243,4.76203381904,4.63904134362,0.040984524433,0.118872099548,3.12134969979,3.06901547583,-6.38912147277
283,"Bethel, AK",4.66904296888,5958.2,-161.826293797,60.80069223,239.994081676,10,0.00167835923601,2.16079683656,15.4917423706,0.0409677829033,0.118839725763,1.54095411896,5.48061426335,-6.38993860803
284,"Gulf Shores, AL",5.13097972045,8399.0,-87.7119928397,30.259257,16.3676918002,14,0.00166686510299,2.26516659883,4.0457004091,0.0408272593127,0.118567815408,1.63529661959,2.79530937962,-6.39681060051
285,"Paddock Lake, WI",14.6535480561,3000.0,-88.1050853,42.5775187,36.4412085232,5,0.00166666666667,3.82799530513,6.03665540868,0.0408248290464,0.11856311015,2.68468249427,3.59570023658,-6.39692965522
286,"Pikeville, KY",10.0891057719,6633.45454545,-82.5242934364,37.4661614818,104.398701025,11,0.00165826115558,3.17633527385,10.217568254,0.0407217528549,0.118363457428,2.31145620525,4.64821723308,-6.40198572226
287,"Romeo, MI",26.0375454683,3625.0,-83.0225031603,42.7935320167,25.6716206784,6,0.00165517241379,5.1026998215,5.06671695266,0.0406838102172,0.118289922292,3.25953955285,3.24538612801,-6.40385009806
288,"Montpelier, VT",6.36905107167,7855.0,-72.5746941923,44.2791239,37.752613315,13,0.00165499681731,2.52369789628,6.1443155286,0.0406816520967,0.118285739036,1.85145049015,3.63105470019,-6.40395619323
289,"Homer, AK",3.57564279059,4870.875,-151.5401477,59.6440876,190.424042642,8,0.00164241537711,1.89093701391,13.7994218227,0.0405267242337,0.117985236521,1.27414496155,5.24925338877,-6.41158732972
290,"Sarasota, FL",6.96763894213,51893.7529412,-82.5306527,27.3364347,56.5096369252,85,0.00163796208951,2.63962856139,7.51728920058,0.0404717443349,0.117878503921,1.94127642164,4.03441118866,-6.4143024382
291,"Sultan, WA",21.9678747116,4277.57142857,-121.8147315,47.862282,33.4349458408,7,0.00163644257422,4.68698994149,5.78229589703,0.0404529674341,0.117842041212,3.08958114579,3.50960163567,-6.41523055524
292,"Paintsville, KY",35.194833859,3683.33333333,-82.8131241167,37.8500468167,123.083469006,6,0.00162895927602,5.93252339726,11.0942989416,0.0403603676398,0.117662139846,3.56089930646,4.81286273503,-6.41981394905
293,"Monticello, IN",39.78119315,5569.66666667,-86.7647343,40.7453169,52.9100564885,9,0.00161589562511,6.30723339904,7.27392992051,0.0401982042523,0.117346759646,3.68339426669,3.96859342455,-6.42786590939
294,"Bothell, WA",3.94075839246,30360.8163265,-122.2068217,47.759853,25.5794812541,49,0.00161392234889,1.98513435124,5.05761616318,0.0401736524216,0.117298973579,1.37137319018,3.24179051659,-6.42908782126
295,"New Martinsville, WV",52.0110552098,5583.44444444,-80.9205892667,39.7338588333,99.9642520279,9,0.00161190822073,7.21186905107,9.99821244163,0.0401485768208,0.11725015803,3.95145629617,4.60481264236,-6.43033657155
296,"Two Harbors, MN",44.4959230911,3745.0,-91.6253265667,46.9838732167,45.3153848434,6,0.00160213618158,6.67052644782,6.7316702863,0.040026693363,0.117012738321,3.79539756904,3.8136465961,-6.43641742672
297,"Pukalani, HI",16.3746317421,7493.16666667,-156.315013797,20.8085751167,140.30133023,12,0.00160145910719,4.04655801171,11.8448862481,0.0400182346835,0.11699625252,2.79573329224,4.94379246839,-6.43684012331
298,"Corinth, TX",26.7852885961,17518.8928571,-97.0993042095,33.14640728,46.3126728599,28,0.00159827451588,5.17545056938,6.80534149473,0.0399784256303,0.116918649854,3.28785280382,3.83541563552,-6.43883065923
299,"Havre, MT",0.660403954606,9434.4,-109.719523667,48.5057374467,161.053737711,15,0.00158992622742,0.812652419307,12.6906949262,0.0398738790115,0.116714726812,-0.414903578756,5.0817380839,-6.44406766167
300,"Selah, WA",9.59869156508,6918.72727273,-120.5302727,46.6540065,5.73742820599,11,0.00158988778809,3.09817552199,2.39529292697,0.0398733969971,0.116713786208,2.26162679388,1.74701106219,-6.44409183877
301,"Barboursville, WV",23.4465996402,3781.83333333,-82.2945923,38.4095298,61.3645473335,6,0.00158653210524,4.84216889836,7.83355266361,0.0398312955506,0.116631614723,3.1547254797,4.1168322634,-6.44620471063
302,"Hatfield, PA",15.6132768888,3153.0,-75.29221728,40.28116474,14.7212744438,5,0.00158579130986,3.95136392766,3.83683130249,0.0398219953024,0.116613459063,2.74812163491,2.68929368862,-6.44667174711
303,"Poynette, WI",22.3093675803,2528.0,-89.3803956,43.338044,22.9303464666,4,0.00158227848101,4.72327932482,4.78856413412,0.0397778642088,0.116527288419,3.10500666113,3.13246120651,-6.44888939415
304,"Jenkintown, PA",9.10445965457,4430.0,-75.1181559714,40.1140908571,9.64167694692,7,0.00158013544018,3.01735971581,3.10510498163,0.039750917476,0.116474656394,2.20876436541,2.26609505064,-6.45024471398
305,"Collegeville, PA",16.7344600559,5696.0,-75.4495799333,40.1954421222,25.3213959455,9,0.00158005617978,4.09077743906,5.03203695788,0.0397499205002,0.116472708885,2.81747006978,3.23164972789,-6.45029487576
306,"Grove City, PA",6.75000997881,8229.53846154,-80.0825590385,41.1562138308,50.6487861834,13,0.00157967546549,2.59807813178,7.11679606167,0.0397451313432,0.11646335344,1.90954398323,3.92491526562,-6.45053585463
307,"Canandaigua, NY",40.5073435433,10770.2352941,-77.283289,42.8766977647,98.8206618996,17,0.00157842419741,6.36453796778,9.9408582074,0.0397293870756,0.116432594934,3.70148327973,4.59330671143,-6.45132827303
308,"Wyoming, PA",2.02759192018,3168.6,-75.8374174,41.3117471,16.9551670693,5,0.00157798396768,1.42393536376,4.11766524493,0.0397238463355,0.1164217694,0.70684884269,2.83057262922,-6.45160721651
309,"Dacula, GA",6.05638764572,4442.0,-83.8977772143,33.9888338714,48.0459823362,7,0.0015758667267,2.46097290634,6.93152092518,0.0396971878941,0.116369676926,1.80111352428,3.87215851769,-6.4529498554
310,"Munising, MI",57.6809290068,2539.0,-86.6479362,46.4110575,243.853350825,4,0.00157542339504,7.59479617941,15.6158045206,0.0396916035836,0.116358763312,4.05492659907,5.4965670234,-6.45323122058
311,"Poulsbo, WA",16.2345726944,7643.83333333,-122.63928,47.7391366,19.8935642398,12,0.00156989294202,4.02921489802,4.46022020082,0.0396218745395,0.116222446273,2.78714308518,2.99039627439,-6.45674785174
312,"Alma, AR",19.5374236964,5104.25,-94.2291189548,35.530618,19.4458989124,8,0.00156732134986,4.42011580124,4.40975043652,0.0395894095669,0.116158951482,2.97233179025,2.967636195,-6.45838726334
313,"Lillington, NC",31.149039505,3194.0,-78.81563042,35.4044936,31.1486580091,5,0.00156543519098,5.58113245722,5.58109827983,0.0395655808877,0.116112336454,3.43878341025,3.43877116274,-6.45959141634
314,"Point Pleasant, WV",41.6180024598,4483.28571429,-82.1129080714,38.8174897286,70.7175398468,7,0.00156135487366,6.45120162914,8.40937214344,0.0395139832674,0.116011366149,3.72853282509,4.25869363049,-6.4622013259
315,"Smithville, TX",53.2819759517,3845.0,-97.1594321,30.0085542,24.1030955634,6,0.00156046814044,7.29945038696,4.90949035679,0.0395027611749,0.115989400053,3.97559811173,3.18234027886,-6.46276941271
316,"Rushville, IL",44.9985761918,3208.0,-90.5631829,40.1211577,82.0602560922,5,0.00155860349127,6.70809780726,9.05871161326,0.0394791526159,0.115943181927,3.80663084909,4.4074538078,-6.46396505655
317,"Atoka, OK",60.2828294446,3215.2,-96.21400688,34.33299494,65.0885332295,5,0.00155511321224,7.76420179056,8.06774647777,0.0394349237636,0.115856570952,4.09904731102,4.17574839283,-6.4662069307
318,"Amelia, OH",19.2420457359,4508.28571429,-84.2177136,39.0283966,88.4534250858,7,0.00155269662209,4.38657562751,9.40496810658,0.0394042716224,0.115796527521,2.95709776681,4.48247614327,-6.46776210348
319,"Issaquah, WA",13.7580221594,22548.0857143,-122.0432974,47.5348778,45.4168920817,35,0.00155223820077,3.70918079357,6.73920559723,0.0393984542942,0.115785130398,2.62162208376,3.81588410813,-6.46805738912
320,"Newport, OR",6.28070277972,9672.0,-124.053128773,44.6351265133,156.12196618,15,0.00155086848635,2.50613303312,12.4948775976,0.0393810676132,0.115751063626,1.83748188182,5.05063753626,-6.46894019119
321,"Monroeville, AL",72.8447971914,6451.8,-87.24512575,31.728211,43.1808552001,10,0.0015499550513,8.53491635527,6.5712141344,0.0393694685169,0.11572833403,4.28833111199,3.76539723036,-6.46952934763
322,"Phillipsburg, KS",101.717243076,2581.0,-99.3239853,39.7561206,115.743847502,4,0.0015497869043,10.0854966698,10.758431461,0.0393673329589,0.115724148946,4.62219683712,4.75137953822,-6.4696378386
323,"Eaton Rapids, MI",30.4852205077,5163.625,-84.655814,42.5092039,53.7476565367,8,0.0015492991842,5.52134227409,7.33127932469,0.0393611379942,0.115712008155,3.41724199265,3.98430006674,-6.46995258952
324,"Millsboro, DE",12.3474261254,3877.0,-75.2916917199,38.58752595,62.4629859701,6,0.0015475883415,3.51389045438,7.90335283093,0.0393393993536,0.115669400082,2.51344763045,4.13457415683,-6.47105746844
325,"Wallace, NC",36.6393067299,3880.0,-77.9922074833,34.72595535,55.6852186133,6,0.00154639175258,6.05304111417,7.46225291807,0.039324187882,0.115639580694,3.6011216185,4.01971473673,-6.47183096339
326,"Newport, NC",12.8643659612,3883.0,-76.8591057,34.7865497,12.8615267545,6,0.00154519701262,3.58669290032,3.58629708118,0.0393089940423,0.115609792032,2.55446116051,2.55424043295,-6.4726038605
327,"Sheridan, IN",26.7722496806,2592.5,-86.2205487,40.1350375,57.5512051018,4,0.00154291224687,5.17419072712,7.58625105713,0.0392799216759,0.115552782778,3.28736589138,4.05267507503,-6.47408357898
328,"Sturgeon Bay, WI",3.66539403323,9079.5,-87.2896650357,44.9318603286,210.005149956,14,0.00154193512859,1.91452188111,14.4915544355,0.0392674818213,0.115528384635,1.29893584204,5.34713205402,-6.47471707438
329,"Hillsboro, OH",29.50724868,6486.5,-83.5982455121,39.200663095,73.576494396,10,0.00154166345487,5.4320574997,8.57767418337,0.039264022398,0.115521599251,3.38463595113,4.29832560511,-6.47489328002
330,"Junction, TX",87.1786403232,2596.0,-99.7720109,30.4893555,120.561068229,4,0.00154083204931,9.33695026886,10.9800304293,0.0392534335989,0.115500828922,4.46795935049,4.79215641484,-6.4754327167
331,"Montpelier, ID",74.7154823953,2597.0,-111.21208505,42.2622166,140.535584499,4,0.001540238737,8.64381179777,11.8547705376,0.0392458754139,0.115486002114,4.31368733164,4.94546072716,-6.47581785054
332,"Punta Gorda, FL",5.54797046136,15588.2083333,-82.0453664,26.9297836,110.353328535,24,0.00153962530438,2.3554130129,10.5049192541,0.0392380593861,0.115470668498,1.71343217824,4.70368729568,-6.476216201
333,"Gunnison, CO",1.48795837218,5854.0,-106.9387783,38.5028006333,185.888353235,9,0.00153741031773,1.21981899156,13.6340879136,0.0392098242502,0.115415267846,0.397404960334,5.22514624207,-6.47765588992
334,"Bemidji, MN",4.85827824954,13031.4,-94.89055436,47.4790982,147.886835991,20,0.00153475451602,2.20415023298,12.1608731591,0.0391759430775,0.11534877145,1.5806841055,4.99644735961,-6.47938483515
335,"Crystal River, FL",11.3185722909,3258.8,-82.6733995,28.9205708,77.0255006569,5,0.00153430710691,3.36430859032,8.77641730189,0.0391702324082,0.115337561599,2.42644494211,4.34413654439,-6.479676396
336,"Green Island, NY",9.00855580083,2620.0,-73.6871757981,42.744345675,2.94804797747,4,0.00152671755725,3.00142562807,1.71698805397,0.0390732332582,0.115147072253,2.1981747703,1.08114324878,-6.48463523564
337,"Marked Tree, AR",38.9875884566,2624.5,-90.4206578,35.5328594,53.8369552271,4,0.00152409982854,6.24400420056,7.33736705005,0.0390397211637,0.115081223741,3.66324335078,3.98596013149,-6.48635131957
338,"Windsor, VA",35.2540591099,2626.0,-76.78301405,36.83237205,37.0412629268,4,0.001523229246,5.9375128724,6.08615337687,0.0390285696125,0.115059307682,3.56258067468,3.61203250549,-6.48692269374
339,"Ashville, OH",11.1251453436,3943.16666667,-82.9529584,39.7156186,10.7874129707,6,0.00152161967961,3.33543780389,3.2844197312,0.0390079438014,0.11501876643,2.40920789256,2.37837998877,-6.48797993276
340,"Davison, MI",19.9017683293,5263.75,-83.5180063,43.0347491,71.4254439022,8,0.00151982901924,4.46113980159,8.4513575183,0.0389849845355,0.114973630229,2.99080858855,4.26865416304,-6.4891574378
341,"Alvarado, TX",30.6573172968,3295.4,-97.2116782,32.4065312,44.3666622466,5,0.00151726649269,5.5369050287,6.66083044722,0.0389521051124,0.114908976308,3.42287137114,3.79248833711,-6.49084492319
342,"Clarkston, WA",5.17559403147,7258.45454545,-117.0451581,46.4162724,139.058785238,11,0.00151547411796,2.27499319372,11.7923189084,0.0389290908956,0.114863710452,1.64395412125,4.93489675911,-6.49202693983
343,"Denham Springs, LA",19.2322664488,9910.46666667,-90.9562125,30.4868564,102.822054869,15,0.00151355132957,4.38546080233,10.140121048,0.0389043870222,0.114815111342,2.95658941271,4.63299987154,-6.49329651559
344,"Fort Mill, SC",10.4424313697,9924.46666667,-80.9450759,35.0073697,23.7513990733,15,0.0015114162306,3.23147510739,4.87354071218,0.0388769370012,0.114761097759,2.34587744516,3.1676414371,-6.49470816665
345,"Belleview, FL",20.4252565849,3985.0,-82.0531434,29.0397026667,33.5672932031,6,0.00150564617315,4.51943100234,5.79372878232,0.0388026567795,0.114614872305,3.01677220296,3.51355217632,-6.498533122
346,"Potosi, MO",81.5583698384,2661.0,-90.7879086,37.936438,96.7176304072,4,0.00150319428786,9.03096727036,9.83451220993,0.03877104961,0.11455262324,4.40131895824,4.57179570649,-6.50016290986
347,"Vassar, MI",43.8815998998,2662.5,-83.5832917,43.3719678,104.090582099,4,0.00150234741784,6.62431882534,10.2024792134,0.0387601266489,0.114531106969,3.78149509554,4.64526150178,-6.5007264489
348,"Edinboro, PA",23.3971345108,6658.8,-80.13172051,41.88466956,82.3439289542,10,0.00150177209107,4.83705845642,9.07435556688,0.0387527043065,0.114516485135,3.15261355806,4.41090473143,-6.50110947413
349,"Safford, AZ",7.10722937104,9336.78571429,-109.70758,32.8339546,77.7265186534,14,0.00149944535822,2.66593874105,8.81626443872,0.0387226724055,0.114457313486,1.96111248728,4.35319649456,-6.50266000044
350,"Newton, NJ",34.305581908,8019.08333333,-74.7345491417,41.0815359833,22.286995103,12,0.00149643039001,5.85709671322,4.7209104104,0.0386837225459,0.114380548054,3.53530807877,3.10400332912,-6.50467274695
351,"Rhinebeck, NY",6.21660862415,2674.0,-73.9126639,41.9268754,50.255365821,4,0.00149588631264,2.49331278105,7.08910190511,0.0386766895253,0.114366684081,1.82722452078,3.91711732375,-6.50503639654
352,"Orange Park, FL",8.14738143323,8700.61538462,-81.706484,30.1660736,4.96453956484,13,0.00149414718676,2.85436182591,2.22812467444,0.038654200118,0.114322345777,2.09769657909,1.60232055701,-6.50619967854
353,"Peotone, IL",22.3543751574,4015.83333333,-87.7853217,41.3322554,30.867320259,6,0.00149408590994,4.72804136587,5.55583659398,0.0386534074816,0.114320782922,3.10702205838,3.42969802746,-6.50624069062
354,"Lindsborg, KS",24.2490875749,3354.2,-97.70631822,38.57000672,22.5071988914,5,0.00149066841572,4.92433625729,4.74417525935,0.0386091752789,0.11423355258,3.1883789909,3.11383520877,-6.50853065846
355,"Dupo, IL",7.68124567086,4035.5,-90.2103903,38.5161634,28.3214500141,6,0.00148680460909,2.77150602937,5.32179011368,0.038559105398,0.114134769543,2.03878173073,3.34361946858,-6.51112601954
356,"Moses Lake, WA",9.19374764058,17516.5,-119.2780771,47.1301417,103.172829272,26,0.00148431478891,3.03211933152,10.1574026834,0.0385268061084,0.114071023479,2.21852364873,4.63640553613,-6.51280203482
357,"Colby, KS",55.6436803311,5394.875,-101.0523773,39.3958369,254.77743045,8,0.00148288885285,7.45946917221,15.9617489784,0.0385082958964,0.114034483588,4.01896851029,5.54039034226,-6.51376316614
358,"Humble, TX",8.63801616707,14842.2272727,-95.26159985,30.0161919,46.3677181789,22,0.00148225731865,2.93905021513,6.80938456683,0.0385000950472,0.114018292916,2.15617294616,3.8366034882,-6.51418913786
359,"Marion, NC",38.9593337167,6808.7,-82.00696575,35.68560069,109.351154274,10,0.00146870915153,6.24174124077,10.4571102258,0.0383237413561,0.11366984479,3.6625183769,4.69456430284,-6.52337139219
360,"East Wenatchee, WA",6.84518419838,10216.8,-120.2931263,47.4156824,83.2989764569,15,0.00146817007282,2.61633029229,9.12682729413,0.0383167074893,0.113655935866,1.9235453683,4.42243626167,-6.52373850208
361,"Crisfield, MD",34.304508774,2725.25,-75.876251975,38.023179475,53.3771351225,4,0.00146775525181,5.85700510278,7.30596572142,0.0383112940503,0.113645230632,3.53527679667,3.97738247304,-6.52402108489
362,"Belgrade, MT",1.95239839196,6825.1,-111.17675151,45.7777749,117.573698087,10,0.00146517999736,1.39728250256,10.8431406007,0.0382776696961,0.113578726194,0.669058561408,4.76706535473,-6.52577717897
363,"Healdsburg, CA",12.76360195,10921.5,-122.885307348,38.6287355625,90.0703154727,16,0.00146500022891,3.57261836053,9.49053820775,0.0382753214083,0.11357408087,2.54659752256,4.50059064832,-6.52589988026
364,"Wahoo, NE",38.1869991794,4105.16666667,-96.6856253833,41.1770863833,27.3851666613,6,0.00146157281475,6.17956302496,5.23308385766,0.0382305220308,0.113485441663,3.64249512207,3.31000150408,-6.52824215273
365,"Lawrenceville, GA",3.38765877821,25321.1621622,-83.9897550811,33.9553686027,48.457849028,37,0.00146122834975,1.84055936558,6.96116721736,0.0382260166608,0.113476525507,1.2201390569,3.88069432786,-6.52847786154
366,"Peshtigo, WI",31.2361723458,3432.4,-87.91332842,45.18125636,202.594329155,5,0.00145670667754,5.58893302391,14.2335634735,0.0381668269253,0.113359356091,3.44157679332,5.31120560107,-6.5315770915
367,"Caseyville, IL",13.5114959182,4127.66666667,-90.0256606,38.6367162,18.3741585242,6,0.00145360574982,3.67579867759,4.28650889702,0.0381261819465,0.113278861987,2.60354087258,2.91094524945,-6.53370808532
368,"Lancaster, KY",46.4302232352,3442.0,-84.5779957,37.6195246,29.0787964422,5,0.00145264381174,6.81397264708,5.39247591021,0.0381135646685,0.113253868668,3.83795061002,3.37000926399,-6.53437006434
369,"Goshen, NY",6.5172029312,5509.5,-74.309735275,41.4195382125,21.3986350628,8,0.00145203738996,2.55288129986,4.62586587168,0.0381056083794,0.113238106793,1.87444528561,3.06332713788,-6.53478761225
370,"Durand, MI",20.5030874305,3446.0,-83.984684,42.9119753,90.0869130796,5,0.00145095763204,4.52803350589,9.49141259664,0.0380914377785,0.113210031285,3.02057548117,4.50077490523,-6.53553150465
371,"Woodland, WA",18.1659438433,4832.14285714,-122.7408326,45.9109715,37.550484553,7,0.00144863266814,4.26215248945,6.12784501705,0.0380609073479,0.113149531024,2.89954862377,3.62568628233,-6.53713515493
372,"Canton, TX",50.1765225128,3454.6,-95.8677747304,32.5765055,104.233361239,5,0.00144734556823,7.08353884106,10.2094740922,0.0380439951665,0.11311601024,3.91554723827,4.64663224352,-6.53802404283
373,"Andalusia, AL",46.8270733698,8998.0,-86.4651623,31.2223847462,53.9768269085,13,0.00144476550345,6.84303100751,7.34689232999,0.0380100710792,0.113048756036,3.84646152647,3.98855482314,-6.53980825194
374,"Ravenna, OH",14.5056211827,11775.6470588,-81.2362407824,41.1473769235,17.7669523818,17,0.00144365739862,3.80862457886,4.21508628403,0.0379954918197,0.113019846636,2.67453624208,2.8773401239,-6.54057552524
375,"Almont, MI",37.6123247259,2770.75,-83.0693798,42.906764975,38.280357467,4,0.00144365244067,6.13288877495,6.1871122074,0.0379954265758,0.113019717255,3.62733178195,3.64493690476,-6.54057895954
376,"Chelsea, MI",36.7796589437,4866.0,-84.020224,42.3180163,83.0887046283,7,0.00143855322647,6.06462356158,9.11530057806,0.0379282642164,0.112886492293,3.60494494626,4.41990876757,-6.54411737429
377,"Wendell, ID",37.1741828779,2782.0,-114.75282985,42.7848337,70.7856433849,4,0.00143781452193,6.0970634635,8.41342043315,0.0379185247857,0.112867166385,3.61561451169,4.25965620309,-6.54463101136
378,"McCormick, SC",47.4113117261,2783.0,-82.290036925,33.9049764,62.0542339658,4,0.00143729787999,6.88558724628,7.87745098149,0.0379117116467,0.11285364612,3.85886084424,4.12800874407,-6.54499040041
379,"Waynesburg, PA",36.053227319,4176.0,-80.1792299,39.8964641,62.5090418851,6,0.0014367816092,6.00443397157,7.90626598876,0.0379049021789,0.112840132332,3.58499638314,4.13531121644,-6.54534966033
380,"Jacksonville, OR",10.0608017306,2785.0,-122.9845762,42.2949362,102.804254857,4,0.00143626570916,3.17187668906,10.1392433079,0.0378980963791,0.112826625014,2.30864685639,4.63282674182,-6.54570879124
381,"Endicott, NY",4.23540072511,13242.9473684,-76.0517076632,42.0913904737,40.6951183969,19,0.00143472593158,2.0580089225,6.37927256017,0.0378777762227,0.112786291245,1.44347794585,3.70610814415,-6.54678143646
382,"West Grove, PA",17.7385778153,2803.5,-75.8274413,39.8220535,24.1799323274,4,0.00142678794364,4.21171910451,4.9173094602,0.0377728466447,0.112577900117,2.87574180542,3.18552304648,-6.55232955444
383,"Holmes Beach, FL",19.0252132136,4212.66666667,-82.7136181667,27.5016116333,43.9579723159,6,0.00142427599304,4.36179013865,6.63008086798,0.0377395812515,0.112511794465,2.94576511071,3.78323400281,-6.55409166944
384,"Omro, WI",15.5077784441,3517.0,-88.73105512,44.02270434,102.095997858,5,0.00142166619278,3.93799167649,10.1042564228,0.037704988964,0.112443031378,2.74134173315,4.62591352615,-6.55592572004
385,"Northfield, MN",10.340410503,17588.84,-93.148079264,44.476672244,44.4413823776,25,0.00142135581425,3.21565086771,6.6664370077,0.037700872858,0.112434847919,2.33605956878,3.79417107089,-6.55614406413
386,"Geneva, OH",4.75090379801,6341.88888889,-81.4595898111,41.0963538778,64.8710194053,9,0.00141913555373,2.17965680739,8.05425473929,0.0376714156055,0.112376273622,1.55833487321,4.17240098169,-6.55770735772
387,"Blanchester, OH",22.5978711936,4229.16666667,-84.0047197667,39.2802562333,58.1562137974,6,0.00141871921182,4.75372182543,7.62602214771,0.0376658892345,0.112365283005,3.11785570687,4.06313273134,-6.55800077789
388,"Hillsboro, MO",48.4225901838,2821.0,-90.565224775,38.24099895,59.0782964588,4,0.00141793690181,6.95863421828,7.68624072345,0.0376555029419,0.112344625723,3.87996644417,4.07886362277,-6.55855234988
389,"Santa Rosa, NM",89.8482112782,2822.0,-104.8139504,34.85443615,111.478533378,4,0.00141743444366,9.47882963652,10.558339518,0.0376488305749,0.11233135406,4.49812170516,4.71383204661,-6.55890677129
390,"Dade City, FL",15.6954676528,6354.0,-82.1959178,28.3647248,55.6442989409,9,0.0014164305949,3.96175057933,7.45951063682,0.0376354964747,0.112304829536,2.75337198614,4.01897962757,-6.55961523749
391,"Canton, NY",25.3365883942,6355.55555556,-75.2155641,44.5238318667,64.8189988584,9,0.00141608391608,5.03354630397,8.05102470859,0.0376308904503,0.11229566639,3.23224953261,4.17159875265,-6.5598600227
392,"Duvall, WA",20.0277865791,5655.5,-121.9856782,47.7423219,32.6379459123,8,0.00141455220582,4.4752415107,5.71296297137,0.0376105331765,0.112255163499,2.99712063828,3.48547559651,-6.56094226029
393,"Show Low, AZ",2.56316429248,8484.41666667,-110.0298327,34.2542084,176.410970948,12,0.00141435769499,1.60098853602,13.2819791804,0.0376079472318,0.112250017973,0.941242546958,5.17281633522,-6.56107977674
394,"Barre, VT",4.85920923317,9214.53846154,-72.5033304,44.1980460385,46.7675136961,13,0.00141081401464,2.20436141165,6.83867777396,0.0375608042332,0.112156191906,1.58087571545,3.8451888101,-6.56358842583
395,"Liberty, NY",49.6521345229,4253.0,-74.7867825833,41.7574038667,63.3641956849,6,0.00141076886903,7.04642707498,7.96016304386,0.0375602032613,0.112154995572,3.90504138097,4.14889896509,-6.56362042603
396,"Ridgeland, MS",13.6880655457,20637.137931,-90.156934511,32.413548431,13.8325976939,29,0.001405233618,3.69973857802,3.71922003838,0.0374864457905,0.112008120638,2.61652432513,2.6270279584,-6.56755171386
397,"Anderson, CA",6.7699636752,9254.84615385,-122.2977815,40.448208,168.588111998,13,0.00140466948709,2.60191538586,12.9841484895,0.0374789205699,0.111993130082,1.91249572136,5.12745853299,-6.56795324438
398,"Schulenburg, TX",92.2261842233,2852.0,-96.89720295,29.655998425,68.0329616288,4,0.00140252454418,9.60344647631,8.24820960141,0.0374502943137,0.111936096203,4.52424408399,4.21999231757,-6.56948142041
399,"Jordan, MN",34.0281901808,5002.28571429,-93.6269014,44.6669074,41.0733360277,7,0.00139936029244,5.83336868206,6.40884826062,0.0374080244391,0.111851852713,3.52718930405,3.71535915252,-6.57174008076
400,"Loganville, GA",16.4777731775,9298.84615385,-83.9007382,33.8389977,46.4362512558,13,0.00139802291434,4.0592823476,6.81441496064,0.0373901446151,0.111816208831,2.80201239263,3.83808043126,-6.5726962445
401,"Ocean City, NJ",15.0925840947,12199.5882353,-74.5870026118,39.2757037706,19.3043530538,17,0.00139348965491,3.88491751453,4.39367193288,0.0373294743454,0.11169521874,2.71420350363,2.96033061731,-6.57594413489
402,"Greenville, IL",53.2000339274,6478.0,-89.4145784333,38.9166320667,54.1939197246,9,0.00138931769065,7.29383533728,7.36165196981,0.0372735521603,0.111583639327,3.97405903408,3.99256871995,-6.5789425224
403,"Waxhaw, NC",15.3312580426,8653.33333333,-80.7434019,34.9245935,37.6833569118,12,0.00138674884438,3.9155150418,6.13867713044,0.0372390768465,0.111514824237,2.72989375361,3.62921853576,-6.58079323236
404,"Lynnwood, WA",8.83286371235,34643.8125,-122.3053932,47.8278656,19.0576251955,48,0.00138552880114,2.97201341053,4.36550400246,0.037222692019,0.111482111554,2.17847927827,2.94746729421,-6.58167340634
405,"Pigeon Forge, TN",34.7598646192,5776.0,-83.5543329,35.7884241,39.1289150297,8,0.00138504155125,5.89574970798,6.25531094588,0.0372161463782,0.111469041691,3.54846340566,3.66686170851,-6.58202513889
406,"Buford, GA",16.3190216383,11556.3125,-84.0043513,34.1206564,51.9547741395,16,0.00138452469159,4.03968088323,7.20796601959,0.0372092017059,0.111455174232,2.79233139911,3.95037361206,-6.58239838121
407,"Deming, NM",55.3419622174,13747.9473684,-107.755828526,32.2605817632,136.054203669,19,0.00138202449361,7.43921784984,11.6642275213,0.0371755900237,0.111388044599,4.01353143122,4.91305336272,-6.58420583049
408,"Fortuna, CA",42.4438542001,10859.4,-124.1572756,40.5981867,266.435078813,15,0.00138129178408,6.51489479578,16.3228391775,0.0371657340043,0.111368356209,3.74818212489,5.58513060722,-6.58473614224
409,"Auburn, WA",16.0589777249,54298.9733333,-122.2301808,47.3075369,27.1059864391,75,0.00138124158517,4.00736543441,5.20634098375,0.0371650586596,0.111367007077,2.776268053,3.2997546053,-6.5847724849
410,"Lordsburg, NM",64.2954108465,2896.5,-108.840635075,32.199488075,101.191562482,4,0.00138097704126,8.01844192138,10.0594016961,0.0371614994484,0.111359896724,4.16348825773,4.6170153787,-6.58496402942
411,"Calistoga, CA",21.5774799563,5071.85714286,-122.583325949,38.582615,65.7909179459,7,0.00138016505647,4.64515661268,8.11116008632,0.0371505727611,0.111338066704,3.07165017619,4.18648180367,-6.58555218082
412,"Algonac, MI",24.941547755,4351.16666667,-82.531018,42.6183675,24.5416374533,6,0.00137894051404,4.99415135483,4.95395170074,0.0371340883022,0.11130512897,3.21653499747,3.20037116295,-6.58643981813
413,"Norway, MI",36.4314777818,2902.0,-87.637299925,45.6605192,245.203890366,4,0.0013783597519,6.03584938362,15.6589875268,0.0371262676806,0.111289500816,3.59543317516,5.50209007003,-6.58686107232
414,"Beecher, IL",22.9259764119,4359.0,-87.6214286,41.34059,44.3717517469,6,0.0013764624914,4.78810781122,6.66121248324,0.0371007074245,0.111238415429,3.13227060881,3.79260304505,-6.58823848301
415,"Walton, KY",19.894246747,3635.0,-84.6102213,38.8756194,71.5714830123,5,0.00137551581843,4.46029671065,8.45999308583,0.0370879470776,0.11121290788,2.99043058174,4.27069671268,-6.58892647753
416,"Williamsburg, VA",17.6758277315,13118.7777778,-76.7075623056,37.2707079,7.43111039418,18,0.00137207903853,4.20426304262,2.72600630854,0.0370415852594,0.11112020737,2.87219804132,2.00567529496,-6.59142814308
417,"Flagler Beach, FL",21.4541367685,4373.33333333,-81.1299203333,29.48159565,69.5984590816,6,0.00137195121951,4.63186104806,8.34256909361,0.0370398598744,0.111116756714,3.06591748312,4.24274242746,-6.5915213046
418,"Cottage Grove, OR",28.7677946913,8750.58333333,-123.103916825,43.8075102,169.394095189,12,0.00137133714895,5.36356175422,13.015148681,0.0370315696258,0.11110017602,3.35925652156,5.1322279244,-6.59196899401
419,"Valdez, AK",19.0791502911,3647.6,-146.360370564,61.5282891,163.525532934,5,0.00137076433819,4.36796866874,12.7877102303,0.0370238347311,0.11108470493,2.94859613102,5.09696914288,-6.59238678363
420,"Lodi, WI",24.6760577646,2924.0,-89.5265093,43.313878,24.6838474418,4,0.00136798905609,4.96750015245,4.9682841547,0.0369863360728,0.111009686033,3.20583345227,3.20614907999,-6.59441345975
421,"Yerington, NV",46.1198949596,2924.25,-119.1631562,38.9939114,61.1871742335,4,0.00136787210396,6.79116300494,7.82222310047,0.0369847550209,0.111006522463,3.83124441785,4.11393759621,-6.59449895541
422,"Cut Bank, MT",4.58615036875,2928.0,-112.3261617,48.6330395,147.195154788,4,0.00136612021858,2.14152991311,12.1324010315,0.0369610635477,0.110959112137,1.52304097255,4.99175928991,-6.59578051396
423,"Prescott Valley, AZ",10.7110802963,30829.047619,-112.315721,34.6100243,78.0885565889,42,0.00136235152376,3.27277868123,8.83677297371,0.0369100463799,0.110856984436,2.37127874737,4.35784352356,-6.59854301075
424,"Lake Worth, FL",3.84627891303,34618.1489362,-80.0627960446,26.6211186,129.491322893,47,0.00135766935681,1.96119323704,11.3794254202,0.0368465650612,0.110729839895,1.34710616483,4.86361387421,-6.60198575754
425,"East Greenville, PA",24.1668823767,2951.0,-75.5259960372,40.3980280125,38.3921430705,4,0.00135547272111,4.91598234097,6.19613936823,0.0368167451184,0.110670089358,3.18498319909,3.64785283112,-6.60360501382
426,"Smithsburg, MD",14.6538290941,2975.0,-77.5727681,39.6548186,27.4501115739,4,0.00134453781513,3.8280320132,5.2392854068,0.0366679398811,0.110371685243,2.68470167292,3.31237023257,-6.61170495686
427,"Clayton, NM",74.4229124387,2980.0,-103.25264875,36.474609375,143.576891563,4,0.00134228187919,8.62687153253,11.9823575127,0.0366371652724,0.110309921556,4.30976385731,4.9668707214,-6.61338421838
428,"Lahaina, HI",0.836143386879,11186.8,-156.6762729,20.872684,130.002075716,15,0.00134086602067,0.914408763562,11.4018452768,0.0366178374657,0.110271122405,-0.178955165199,4.86755041737,-6.61443958969
429,"Bozeman, MT",14.0805479875,35076.2978723,-111.04302416,45.6757459936,132.388005386,47,0.00133993616348,3.75240562673,11.5059986697,0.0366051384846,0.110245626418,2.64479426954,4.88573704564,-6.61513330535
430,"Pratt, KS",80.2155899274,6717.22222222,-98.7485305,37.6280602,131.178323855,9,0.00133983955008,8.95631564469,11.4533106068,0.0366038187909,0.110242976675,4.3847178841,4.87655764834,-6.61520541094
431,"Tillamook, OR",4.80097419077,4484.5,-123.8444288,45.4559211,73.6726558467,6,0.00133794179953,2.19111254635,8.58327768668,0.036577886756,0.110190902648,1.56881885373,4.29963171063,-6.61662281633
432,"Tybee Island, GA",23.5980492357,2990.0,-80.8612217,32.0154921,27.6389220816,4,0.00133779264214,4.85778233721,5.25727325537,0.036575847798,0.110186807702,3.16116404911,3.31922499964,-6.61673430526
433,"Iowa, LA",31.4555243239,2996.0,-92.9215367,30.235485,96.2791629661,4,0.00133511348465,5.60852247244,9.81219460499,0.0365392047621,0.110113202598,3.4485746219,4.56725191913,-6.61873898352
434,"Orting, WA",17.5535160176,5999.5,-122.2042824,47.0978795,21.3108199245,8,0.0013334444537,4.18969163753,4.61636436219,0.0365163587137,0.11006729914,2.86525427273,3.05921492141,-6.61998986972
435,"Farmerville, LA",45.1664090586,3750.4,-92.4056986,32.7734728,99.3289139492,5,0.00133319112628,6.72059588568,9.96638921321,0.0365128898648,0.110060328513,3.81035364814,4.5984367064,-6.62017986751
436,"Ellsworth, WI",57.9437253884,3002.75,-92.4224093,44.6776063,65.7680624014,4,0.00133211223046,7.6120776,8.10975106901,0.0364981126972,0.110030631427,4.05947228762,4.18613434666,-6.62098945331
437,"Talent, OR",16.0834785967,6006.375,-122.7889239,42.2438081,87.3780606346,8,0.00133191817028,4.01042124928,9.34762326127,0.0364954541043,0.110025288133,2.777792571,4.47024422866,-6.62113514248
438,"New Boston, TX",39.3822023884,4505.66666667,-94.4263066667,33.4465238667,9.18037148142,6,0.00133165643264,6.27552407281,3.02991278446,0.0364918680344,0.110018080572,3.67331399822,2.2170676702,-6.62133167359
439,"Shrewsbury, NJ",10.9753629196,3765.2,-74.3398201429,40.21571176,12.4882282333,5,0.00132795070647,3.31290852871,3.53386873459,0.0364410579768,0.109915933192,2.39565302626,2.52478645926,-6.62411834724
440,"Gettysburg, PA",39.7698923782,7555.5,-77.2310908,39.8309399,38.3916021836,10,0.00132353914367,6.30633747735,6.19609572098,0.0363804775075,0.109794081532,3.68311015311,3.64783874254,-6.62744596086
441,"Littleton, CO",15.1231564981,40847.537037,-105.0166498,39.613321,24.268350699,54,0.00132198913122,3.88885027972,4.92629177973,0.0363591684616,0.109751204404,2.71622711207,3.18917306106,-6.62861775906
442,"Port Clinton, OH",5.6987456167,6056.0,-82.9228155875,41.529482025,8.10134393408,8,0.00132100396301,2.38720456113,2.84628598951,0.0363456182092,0.109723934824,1.74024608338,2.0920299657,-6.62936325344
443,"Lake Havasu City, AZ",10.2375533445,49206.2615385,-114.3224548,34.483901,148.855013204,65,0.00132097009543,3.19961768724,12.2006152797,0.0363451522961,0.109722997124,2.32606265986,5.00297276646,-6.62938889153
444,"Harrison, OH",25.8648293331,9093.66666667,-84.7968298347,39.2596715875,61.7129485088,12,0.00131959972142,5.08574766707,7.85575893907,0.0363262951788,0.109685041793,3.25288410506,4.12249377127,-6.63042682972
445,"Edgerton, WI",23.8189496263,5310.14285714,-89.0621891956,42.8458714429,39.8247534151,7,0.00131823195502,4.88046612797,6.31068565333,0.0363074641778,0.109647132475,3.17048146666,3.68448866407,-6.63146386824
446,"Mabank, TX",64.8039744746,3035.0,-96.073963622,32.33111715,94.4725524729,4,0.00131795716639,8.05009158175,9.71969919663,0.0363036797913,0.109639513209,4.17136693596,4.54830934229,-6.63167234237
447,"Brevard, NC",28.5153274098,6829.22222222,-82.7941465111,35.1933899111,129.999269977,9,0.00131786603322,5.33997447651,11.4017222373,0.0363024246191,0.109636986059,3.35044174656,4.86752883488,-6.63174149206
448,"National Park, NJ",6.26709965092,3036.0,-75.1895576,39.8318378,40.5569407478,4,0.00131752305665,2.50341759419,6.368433147,0.036297700432,0.109627474172,1.83531367201,3.70270693109,-6.6320017774
449,"Elkhorn, WI",14.2149154334,9870.23076923,-88.5448872846,42.6725401769,60.8280424664,13,0.00131709179896,3.77026728938,7.79923345377,0.0362917593809,0.109615511611,2.65429179598,4.10805090742,-6.63232915557
450,"Ypsilanti, MI",6.80808131926,20505.037037,-83.6122189068,42.2425479444,55.3064960872,27,0.00131674963333,2.60923002421,7.43683374073,0.0362870449793,0.109606018496,1.91811033586,4.01289037156,-6.63258897806
451,"Barrington, IL",18.5256516612,9876.38461538,-88.1361888,42.1539141,29.2008946528,13,0.00131627113628,4.30414354561,5.40378521527,0.0362804511587,0.109592740216,2.91915634796,3.3741993476,-6.63295243669
452,"Peru, IN",13.6751033012,12177.1875,-86.0695043875,40.7606487625,13.4159002539,16,0.00131393230169,3.69798638467,3.66277220885,0.0362482041168,0.109527791273,2.6155769023,2.59644058963,-6.63473088103
453,"Azle, TX",17.0641909421,10658.3571429,-97.5458565,32.8951262,17.0643735393,14,0.00131352325807,4.13088258634,4.13090468775,0.0362425614171,0.109516424302,2.83698217087,2.83699287142,-6.63504224205
454,"Ridgecrest, CA",7.27521722459,25899.9411765,-117.668920205,35.6175564529,7.48426532144,34,0.00131274429422,2.69726105978,2.73573853309,0.0362318132891,0.109494771036,1.98447367166,2.01280285961,-6.63563545189
455,"Satellite Beach, FL",6.82759327049,9904.38461538,-80.5900519,28.1761233,7.93792050448,13,0.00131254999728,2.61296637378,2.81743154389,0.0362291318869,0.109489368727,1.92097223527,2.07165133976,-6.63578347106
456,"Conway, SC",20.5884063256,15242.75,-79.049036585,33.83565617,20.8744843967,20,0.0013120991947,4.53744491158,4.56886029516,0.0362229098044,0.109476832382,3.02472811764,3.03852757087,-6.6361269856
457,"Rolla, MO",39.9162604594,17539.3043478,-91.7744310478,37.9663492,36.9313093266,23,0.00131134049241,6.31793165992,6.07711356868,0.0362124356045,0.109455727184,3.68678377119,3.60905968252,-6.63670538831
458,"East Troy, WI",2.9915240865,3814.2,-88.4054374,42.7851871,45.0057236462,5,0.00131089088144,1.72960229142,6.70863053433,0.0362062271086,0.109443216291,1.09578298546,3.80678967382,-6.63704831074
459,"Hood River, OR",29.1863982121,6870.11111111,-121.525834878,45.7075144889,84.1878333187,9,0.00131002248063,5.40244372595,9.1753928155,0.0361942326985,0.109419044035,3.37370278609,4.4330504134,-6.63771098113
460,"Pontotoc, MS",25.4602311987,5359.28571429,-89.0582451,34.2251998286,84.783424877,7,0.00130614420898,5.04581323462,9.20779153093,0.0361406171638,0.109310960335,3.23711767395,4.44010006234,-6.64067583387
461,"Elizabethton, TN",4.17127849588,13783.2777778,-82.1937728889,36.3200792,44.5446442753,18,0.00130593029396,2.04237080274,6.67417742312,0.0361376575604,0.109304992506,1.42822258256,3.7964919284,-6.64083962325
462,"Fredericksburg, VA",0.61913597703,22977.4,-77.4605399,38.3031837,26.144544491,30,0.00130563075022,0.786851940984,5.11317362222,0.0361335128408,0.109296634702,-0.479430358322,3.26364054507,-6.64106902148
463,"Hayden, ID",2.63299640626,12260.25,-116.784711675,47.7655795437,58.3288309498,16,0.0013050304847,1.62265104266,7.63733140238,0.03612520567,0.109279882375,0.968122515629,4.06609649856,-6.64152887856
464,"Capitola, CA",36.780845619,9962.23076923,-121.953293,36.9752283,41.5762819731,13,0.001304928615,6.06472139665,6.44796727451,0.0361237956893,0.109277038866,3.60497721018,3.7275298598,-6.64160694085
465,"Sunbury, OH",25.6525362261,3069.75,-82.8590673,40.2425623,29.9501015333,4,0.00130303770665,5.0648332871,5.47266859341,0.0360976135867,0.109224230677,3.24464244494,3.39953271465,-6.64305704292
466,"Starke, FL",32.2918313152,5377.71428571,-82.0981318143,29.9266500571,12.4563979786,7,0.00130166826055,5.6825901942,3.52936226231,0.0360786399487,0.109185953676,3.47481429779,2.52223438478,-6.64410855987
467,"Cottleville, MO",7.49082070897,3075.0,-90.651931725,38.72948325,25.0150418746,4,0.00130081300813,2.73693637284,5.00150396127,0.0360667853867,0.109162035136,2.01367836549,3.21947731892,-6.64476581912
468,"Ellensburg, WA",47.6875219882,16919.4545455,-120.547217473,47.0019283182,36.3198322196,22,0.00130027832404,6.90561525052,6.02659374934,0.036059372208,0.109147076491,3.86466977013,3.59236393422,-6.64517694202
469,"Media, PA",13.2955330076,5385.85714286,-75.3871151143,39.914955,33.2705319281,7,0.0012997002732,3.64630402018,5.76806136653,0.0360513560522,0.109130899977,2.58742811472,3.50467207812,-6.64562160017
470,"Plymouth, PA",5.22244741697,6159.5,-75.9446428,41.2403596,28.8805921415,8,0.00129880672132,2.28526747165,5.3740666298,0.0360389611577,0.109105884857,1.65296614584,3.36316981733,-6.64630934272
471,"Follansbee, WV",9.60822660365,3082.75,-80.5959065,40.3275693,34.2864188679,4,0.00129754277836,3.09971395513,5.85546060254,0.0360214211042,0.109070480981,2.26261966939,3.53474932439,-6.64728297363
472,"Eagle Point, OR",12.3843813267,6174.0,-122.8028177,42.4726258,94.5147503352,8,0.0012957563978,3.51914497097,9.72186969339,0.0359966164771,0.109020404053,2.51643610826,4.54875591052,-6.64866066338
473,"Conyers, GA",16.2397616518,13145.3529412,-84.0176904,33.6676103,29.34996482,17,0.00129323267896,4.02985876326,5.41756078138,0.0359615444463,0.108949579097,2.78746265801,3.37929134764,-6.65061024259
474,"Orwigsburg, PA",32.7956835111,3102.5,-76.106436625,40.647693,48.3654627098,4,0.00128928283642,5.72675156708,6.95452821619,0.0359065848616,0.108838546605,3.49029690646,3.87878597863,-6.65366915596
475,"Delta, OH",16.5516113939,3103.0,-84.0059127,41.5725731,16.7204735876,4,0.00128907508862,4.06836716557,4.08906756946,0.0359036918523,0.108832700414,2.80648346227,2.81663393187,-6.65383030333
476,"Plainwell, MI",24.1617230266,3881.4,-85.6489035,42.4400357,30.8357262993,5,0.00128819498119,4.91545756025,5.55299255351,0.0358914332563,0.108807926508,3.18476968785,3.42867396255,-6.65451327984
477,"Bloomfield Hills, MI",12.6104962012,3883.2,-83.2454883,42.583645,19.5595460002,5,0.00128759785744,3.55112604693,4.42261755075,0.0358831138203,0.108791111807,2.53452949902,2.97346345371,-6.65497692254
478,"Enumclaw, WA",2.5120648941,10892.5,-121.9916371,47.2047793,37.8449989556,14,0.00128528804223,1.5849494926,6.15182891144,0.0358509141059,0.108726019596,0.921105081911,3.63349884316,-6.65677242838
479,"Centralia, WA",28.0425160861,15566.35,-122.9614303,46.7204489,47.7033046904,20,0.00128482271053,5.29551849077,6.90675790009,0.035844423702,0.108712896786,3.33372179017,3.86500067622,-6.65713453862
480,"Manchester, TN",35.2818260349,9348.66666667,-86.0885993,35.4817432,9.98451598167,12,0.00128360550524,5.93985067446,3.15982847346,0.0358274406739,0.108678555415,3.56336798816,2.30103549115,-6.65808235983
481,"Freehold, NJ",26.1078988961,11693.3333333,-74.2737573,40.260111,8.91074484918,15,0.00128278221209,5.10958891655,2.98508707564,0.0358159491301,0.108655315292,3.26223790824,2.18725783498,-6.65872395672
482,"Weaverville, NC",29.0566070063,3120.0,-82.5606851,35.6970547,94.669267459,4,0.00128205128205,5.39041807342,9.72981333115,0.035805743702,0.108634674085,3.36924589311,4.55038942227,-6.65929391968
483,"Wharton, NJ",13.4560753532,6242.75,-74.5905629,40.8819585375,8.8780275738,8,0.00128148652437,3.6682523568,2.97960191532,0.0357978564214,0.108618720152,2.59943070319,2.18357941226,-6.65973452773
484,"Tomah, WI",1.6955774042,8586.90909091,-90.5533686727,43.9651576364,14.1344634191,11,0.00128101973406,1.30214338849,3.75958287834,0.0357913360194,0.108605530178,0.528023334269,2.64861602927,-6.66009885099
485,"Ballinger, TX",67.1332634248,3903.8,-99.9463902,31.7383894,54.9474439959,5,0.00128080331984,8.19348908737,7.41265431515,0.0357883126152,0.10859941393,4.20667965028,4.00637716468,-6.66026780428
486,"Union, MO",38.9439927531,7815.8,-91.01219866,38.4548017,64.5866418035,10,0.00127945955628,6.24051221881,8.03658147495,0.035769533912,0.108561421367,3.66212453072,4.16800760618,-6.66131751186
487,"Falls Church, VA",11.7817320171,11733.0,-77.1710914,38.882334,8.32423921509,15,0.00127844541038,3.43245276983,2.88517576849,0.0357553549889,0.10853273055,2.46655019773,2.11917164612,-6.66211046232
